attachment_version,description,status,platform,moored,timestamp,year,month,day,hour,minute,second,latitude,longitude,gps_altitude,vector_averaged_wind_direction,vector_averaged_wind_speed,minimum_wind_speed_over_averaging_period,maximum_wind_speed_over_averaging_period,wind_speed_at_10m,air_temperature,water_temperature,relative_humidity,wind_chill,heat_index,dew_frost_point,barometric_pressure,altimeter_setting,sea_level_pressure,pressure_altitude,density_altitude,wxt520_internal_temperature,rain_accumulation,three_hour_rain_accumulation,six_hour_rain_accumulation,twenty_four_hour_rain_accumulation,rain_duration,rain_intensity,rain_peak_intensity,hail_accumulation,hail_duration,hail_intensity,firmware_version,reporting_interval,cf2_epoch,system_voltage_measured_at_cf2,gps_epoch,gps_latitude,gps_longitude,gps_fix_quality_indicator,number_of_satellites_used_for_gps,pitch,roll,pitch_maximum,roll_maximum,compass_relative_magnitude,average_compass_heading,sbd_timestamp,sbd_latitude,sbd_longitude
2.1,CalCOFI Line 90 (Magnus),deployed,Wave Glider,--,1593556814,2020,06,30,22,40,14,32.86719,-117.26081,3.1,266.99,8.26,5.64,11.47,10.07,19.20,,73.70,,,14.41,29.91,29.91,,10.40,732.27,20.40,0.0126,,,,830.00,0.0000,0.1811,0.00,0.00,0.00,2.04,10,1593556601,15.26,1593556112,32.86719,-117.26081,2,10,1.04,0.22,7.8,4.4,6765,316.8,1593556814,32.87712,-117.23459
2.1,CalCOFI Line 90 (Magnus),deployed,Wave Glider,--,1593557641,2020,06,30,22,54,01,32.86955,-117.26112,3.8,266.46,8.67,5.05,12.05,10.57,19.30,,72.30,,,14.21,29.90,29.90,,19.64,752.64,20.30,0.0126,,,,850.00,0.0000,0.1811,0.00,0.00,0.00,2.04,10,1593557373,15.26,1593556884,32.86955,-117.26112,2,10,1.50,0.21,6.6,4.9,6082,327.2,1593557641,32.86815,-117.27261
2.1,CalCOFI Line 90 (Magnus),deployed,Wave Glider,--,1593558421,2020,06,30,23,07,01,32.87182,-117.26247,3.8,269.11,7.81,4.47,12.05,9.53,19.30,,73.30,,,14.42,29.90,29.90,,19.64,755.50,20.20,0.0126,,,,850.00,0.0000,0.1811,0.00,0.00,0.00,2.04,10,1593558145,15.26,1593557716,32.87182,-117.26247,2,10,0.38,0.15,5.2,5.5,4159,184.7,1593558421,32.87712,-117.23459
2.1,CalCOFI Line 90 (Magnus),deployed,Wave Glider,--,1593559188,2020,06,30,23,19,48,32.87034,-117.26100,2.6,277.76,8.96,5.64,12.83,10.93,19.30,,73.30,,,14.42,29.90,29.90,,19.64,755.50,20.10,0.0126,,,,900.00,0.0000,0.1811,0.00,0.00,0.00,2.04,10,1593558977,15.26,1593558487,32.87034,-117.26100,2,10,1.13,0.26,7.3,5.8,4493,299.6,1593559188,32.91648,-115.95269
2.1,CalCOFI Line 90 (Magnus),deployed,Wave Glider,--,1593559953,2020,06,30,23,32,33,32.87065,-117.26297,3.9,259.30,7.68,3.89,10.89,9.36,19.30,,72.80,,,14.31,29.90,29.90,,19.64,754.07,20.10,0.0126,,,,900.00,0.0000,0.1811,0.00,0.00,0.00,2.04,10,1593559747,15.26,1593559259,32.87065,-117.26297,2,9,1.21,0.22,8.4,6.3,6459,0.9,1593559953,32.85970,-117.21503
2.1,CalCOFI Line 90 (Magnus),deployed,Wave Glider,--,1593560733,2020,06,30,23,45,33,32.87199,-117.26214,4.7,286.50,8.92,5.83,12.05,10.88,19.20,,72.20,,,14.09,29.89,29.89,,28.90,750.88,20.00,0.0126,,,,920.00,0.0000,0.1811,0.00,0.00,0.00,2.04,10,1593560520,15.26,1593560030,32.87199,-117.26214,2,8,1.10,0.20,5.7,7.1,6542,301.0,1593560733,32.87712,-117.23459
2.1,CalCOFI Line 90 (Magnus),deployed,Wave Glider,--,1593561504,2020,06,30,23,58,24,32.87347,-117.26527,4.4,282.43,8.75,6.03,11.86,10.67,19.20,,72.30,,,14.11,29.89,29.89,,28.90,751.17,19.80,0.0130,,,,960.00,0.0000,0.1811,0.00,0.00,0.00,2.04,10,1593561291,15.26,1593560802,32.87347,-117.26527,2,9,1.23,0.24,7.5,6.5,6388,303.1,1593561504,32.87712,-117.23459
2.1,CalCOFI Line 90 (Magnus),deployed,Wave Glider,--,1593562278,2020,07,01,00,11,18,32.87472,-117.26824,4.5,277.88,9.21,5.64,12.83,11.23,19.10,,75.10,,,14.60,29.89,29.89,,28.90,746.18,19.80,0.0142,,,,1000.00,0.0000,0.1811,0.00,0.00,0.00,2.04,10,1593562063,15.26,1593561574,32.87472,-117.26824,2,9,1.28,0.23,6.4,6.8,6533,303.9,1593562278,32.86815,-117.27261
2.1,CalCOFI Line 90 (Magnus),deployed,Wave Glider,--,1593563048,2020,07,01,00,24,08,32.87628,-117.27168,2.1,281.16,9.12,6.22,13.61,11.12,19.10,,76.50,,,14.89,29.89,29.89,,28.90,750.13,19.80,0.0142,,,,1010.00,0.0000,0.1811,0.00,0.00,0.00,2.04,10,1593562836,15.26,1593562346,32.87628,-117.27168,2,12,1.45,0.21,5.5,7.3,6602,304.2,1593563048,32.87712,-117.23459
2.1,CalCOFI Line 90 (Magnus),deployed,Wave Glider,--,1593563880,2020,07,01,00,38,00,32.87777,-117.27508,3.4,276.76,9.47,6.03,12.44,11.54,18.90,,77.60,,,14.92,29.89,29.89,,28.90,727.26,19.70,0.0142,,,,1010.00,0.0000,0.1811,0.00,0.00,0.00,2.04,10,1593563607,15.26,1593563118,32.87777,-117.27508,2,12,1.35,0.29,10.3,6.3,6795,304.6,1593563880,32.86815,-117.27261
2.1,CalCOFI Line 90 (Magnus),deployed,Wave Glider,--,1593564655,2020,07,01,00,50,55,32.87935,-117.27863,3.6,272.81,7.85,4.67,11.47,9.57,18.80,,78.50,,,15.00,29.89,29.89,,28.90,716.76,19.40,0.0142,,,,1070.00,0.0039,0.1811,0.00,0.00,0.00,2.04,10,1593564379,15.26,1593563951,32.87935,-117.27863,2,12,1.26,0.23,5.8,6.8,6742,304.7,1593564655,32.86815,-117.27261
2.1,CalCOFI Line 90 (Magnus),deployed,Wave Glider,--,1593565486,2020,07,01,01,04,46,32.88075,-117.28203,3.2,286.71,7.19,4.47,9.91,8.77,18.90,,76.60,,,14.72,29.89,29.89,,28.90,724.46,19.30,0.0142,,,,1090.00,0.0000,0.1811,0.00,0.00,0.00,2.04,10,1593565212,15.26,1593564723,32.88075,-117.28203,2,11,1.24,0.18,7.3,4.9,6768,307.4,1593565486,32.86815,-117.27261
2.1,CalCOFI Line 90 (Magnus),deployed,Wave Glider,--,1593566258,2020,07,01,01,17,38,32.88235,-117.28550,2.6,288.94,8.20,5.83,10.69,10.00,18.90,,75.60,,,14.51,29.89,29.89,,28.90,721.67,19.40,0.0142,,,,1100.00,0.0000,0.1811,0.00,0.00,0.00,2.04,10,1593565984,15.26,1593565556,32.88235,-117.28550,2,12,1.27,0.18,6.1,7.6,6625,305.6,1593566258,32.86815,-117.27261
2.1,CalCOFI Line 90 (Magnus),deployed,Wave Glider,--,1593567033,2020,07,01,01,30,33,32.88390,-117.28908,-0.3,288.93,8.20,5.05,11.66,10.00,18.90,,76.80,,,14.76,29.89,29.89,,28.90,725.02,19.40,0.0142,,,,1130.00,0.0000,0.1811,0.00,0.00,0.00,2.04,10,1593566818,15.26,1593566328,32.88390,-117.28908,2,10,1.26,0.15,6.9,6.4,6734,307.3,1593567033,32.91937,-117.92397
2.1,CalCOFI Line 90 (Magnus),deployed,Wave Glider,--,1593568699,2020,07,01,01,58,19,32.88708,-117.29618,-0.4,270.90,6.18,3.11,9.72,7.54,18.80,,75.40,,,14.37,29.89,29.89,,28.90,708.16,19.20,0.0142,,,,1160.00,0.0000,0.1811,0.00,0.00,0.00,2.04,10,1593568363,15.26,1593567875,32.88708,-117.29618,2,11,1.21,0.16,7.0,6.2,6802,309.4,1593568699,32.91587,-117.29221
2.1,CalCOFI Line 90 (Magnus),deployed,Wave Glider,--,1593569470,2020,07,01,02,11,10,32.88886,-117.30029,2.3,283.23,6.45,3.50,9.53,7.87,18.80,,76.60,,,14.62,29.89,29.89,,28.90,711.49,19.20,0.0146,,,,1180.00,0.0000,0.1811,0.00,0.00,0.00,2.04,10,1593569136,15.26,1593568767,32.88886,-117.30029,2,9,1.17,0.21,5.4,8.1,6518,305.8,1593569470,32.91587,-117.29221
2.1,CalCOFI Line 90 (Magnus),deployed,Wave Glider,--,1593570242,2020,07,01,02,24,02,32.88964,-117.30397,-3.1,277.09,5.44,2.14,8.36,6.64,18.70,,74.60,,,14.11,29.89,29.89,,28.90,693.00,19.10,0.0146,,,,1210.00,0.0000,0.1811,0.00,0.00,0.00,2.04,10,1593570029,15.26,1593569539,32.88964,-117.30397,2,10,1.13,0.24,4.8,5.5,6536,296.8,1593570242,32.87657,-117.33022
2.1,CalCOFI Line 90 (Magnus),deployed,Wave Glider,--,1593571015,2020,07,01,02,36,55,32.88959,-117.30799,0.2,291.47,5.89,2.53,9.72,7.18,18.80,,75.30,,,14.35,29.89,29.89,,28.90,707.88,19.10,0.0146,,,,1230.00,0.0000,0.1811,0.00,0.00,0.00,2.04,10,1593570801,15.26,1593570311,32.88959,-117.30799,2,10,0.92,0.21,5.0,6.4,6687,297.4,1593571015,32.86815,-117.27261
2.1,CalCOFI Line 90 (Magnus),deployed,Wave Glider,--,1593571787,2020,07,01,02,49,47,32.88985,-117.31199,0.2,281.36,4.37,1.75,6.80,5.33,18.80,,74.40,,,14.17,29.89,29.89,,28.90,705.38,19.10,0.0146,,,,1240.00,0.0000,0.1811,0.00,0.00,0.00,2.04,10,1593571573,15.26,1593571083,32.88985,-117.31199,2,11,1.23,0.18,8.5,5.3,6779,339.1,1593571787,32.86815,-117.27261
2.1,CalCOFI Line 90 (Magnus),deployed,Wave Glider,--,1593572564,2020,07,01,03,02,44,32.89254,-117.31203,-1.6,274.62,4.12,0.58,7.39,5.02,18.80,,74.60,,,14.21,29.89,29.89,,28.90,705.94,19.10,0.0146,,,,1260.00,0.0000,0.1811,0.00,0.00,0.00,2.04,10,1593572344,15.26,1593571855,32.89254,-117.31203,2,11,1.23,0.16,6.9,6.5,6724,340.7,1593572564,32.87657,-117.33022
2.1,CalCOFI Line 90 (Magnus),deployed,Wave Glider,--,1593573332,2020,07,01,03,15,32,32.89520,-117.31204,-3.2,284.83,3.89,0.39,7.00,4.74,17.90,,82.40,,,14.87,29.90,29.90,,19.64,598.59,18.50,0.0276,,,,1410.00,0.0000,0.5630,0.00,0.00,0.00,2.04,10,1593573117,15.26,1593572627,32.89520,-117.31204,2,12,1.30,0.16,7.8,5.3,6737,341.5,1593573332,32.86815,-117.27261
2.1,CalCOFI Line 90 (Magnus),deployed,Wave Glider,--,1593574099,2020,07,01,03,28,19,32.89789,-117.31191,-1.8,303.71,3.38,0.19,6.61,4.12,17.90,,83.50,,,15.08,29.90,29.90,,19.64,601.47,18.00,0.0276,,,,1410.00,0.0000,0.5630,0.00,0.00,0.00,2.04,10,1593573889,15.26,1593573401,32.89789,-117.31191,2,12,1.23,0.08,6.4,5.2,4570,30.2,1593574099,32.90687,-117.33022
2.1,CalCOFI Line 90 (Magnus),deployed,Wave Glider,--,1593574868,2020,07,01,03,41,08,32.89789,-117.30693,-1.0,277.18,2.66,0.19,9.72,3.25,18.10,,80.90,,,14.78,29.91,29.91,,10.40,609.26,18.10,0.0276,,,,1410.00,0.0000,0.5630,0.00,0.00,0.00,2.04,10,1593574662,15.26,1593574169,32.89789,-117.30693,2,11,1.15,0.09,6.3,6.2,5384,33.4,1593574868,32.89844,-117.27261
2.1,CalCOFI Line 90 (Magnus),deployed,Wave Glider,--,1593575639,2020,07,01,03,53,59,32.89735,-117.30208,-0.4,242.66,3.29,0.00,7.58,4.01,18.30,,78.10,,,14.43,29.90,29.90,,19.64,639.24,18.30,0.0276,,,,1420.00,0.0000,0.5630,0.00,0.00,0.00,2.04,10,1593575431,15.26,1593574938,32.89735,-117.30208,2,11,0.40,0.12,6.9,5.9,2,178.9,1593575639,32.92518,-119.93601
2.1,CalCOFI Line 90 (Magnus),deployed,Wave Glider,--,1593576412,2020,07,01,04,06,52,32.89169,-117.30213,1.3,241.30,2.08,0.19,5.83,2.54,18.40,,78.10,,,14.53,29.91,29.91,,10.40,640.79,18.40,0.0276,,,,1470.00,0.0000,0.5630,0.00,0.00,0.00,2.04,10,1593576199,15.26,1593575711,32.89169,-117.30213,2,11,0.68,0.08,7.1,6.2,6323,249.7,1593576412,32.91587,-117.29221
2.1,CalCOFI Line 90 (Magnus),deployed,Wave Glider,--,1593577187,2020,07,01,04,19,47,32.88965,-117.30550,2.4,296.80,3.95,0.19,23.91,4.81,18.50,,77.40,,,14.49,29.91,29.91,,10.40,651.87,18.50,0.0276,,,,1500.00,0.0000,0.5630,0.00,0.00,0.00,2.04,10,1593576972,15.26,1593576484,32.88965,-117.30550,2,11,1.03,0.14,9.5,6.2,6554,294.2,1593577187,32.87657,-117.33022
2.1,CalCOFI Line 90 (Magnus),deployed,Wave Glider,--,1593577955,2020,07,01,04,32,35,32.88958,-117.31058,3.3,309.90,2.31,0.19,10.11,2.82,18.50,,76.80,,,14.37,29.91,29.91,,10.40,650.24,18.60,0.0276,,,,1500.00,0.0000,0.5630,0.00,0.00,0.00,2.04,10,1593577746,15.26,1593577256,32.88958,-117.31058,2,11,1.12,0.10,6.7,5.4,6610,328.0,1593577955,32.86815,-117.27261
2.1,CalCOFI Line 90 (Magnus),deployed,Wave Glider,--,1593578733,2020,07,01,04,45,33,32.89148,-117.31204,4.9,164.43,5.77,0.19,34.99,7.04,18.50,,77.40,,,14.49,29.91,29.91,,10.40,651.87,18.70,0.0299,,,,1570.00,0.0000,0.5630,0.00,0.00,0.00,2.04,10,1593578519,15.26,1593578029,32.89148,-117.31204,2,12,1.35,0.08,6.5,5.1,6558,343.2,1593578733,32.86815,-117.27261
2.1,CalCOFI Line 90 (Magnus),deployed,Wave Glider,--,1593579499,2020,07,01,04,58,19,32.89373,-117.31208,5.9,326.27,1.19,0.19,3.30,1.45,18.40,,78.50,,,14.61,29.92,29.92,,1.15,630.43,18.40,0.0299,,,,1570.00,0.0000,0.5630,0.00,0.00,0.00,2.04,10,1593579291,15.26,1593578802,32.89373,-117.31208,2,9,1.21,0.10,7.3,5.5,6712,344.9,1593579499,32.87657,-117.33022
2.1,CalCOFI Line 90 (Magnus),deployed,Wave Glider,--,1593580278,2020,07,01,05,11,18,32.89585,-117.31206,6.1,284.94,3.19,0.19,7.00,3.89,18.50,,79.00,,,14.81,29.92,29.92,,1.15,644.79,18.50,0.0299,,,,1570.00,0.0000,0.5630,0.00,0.00,0.00,2.04,10,1593580064,15.26,1593579575,32.89585,-117.31206,2,12,1.40,0.09,6.0,4.8,6792,344.8,1593580278,32.91587,-117.29221
2.1,CalCOFI Line 90 (Magnus),deployed,Wave Glider,--,1593581047,2020,07,01,05,24,07,32.89779,-117.31195,6.3,296.66,2.06,0.00,5.83,2.51,18.60,,78.40,,,14.78,29.91,29.91,,10.40,667.59,18.70,0.0299,,,,1570.00,0.0000,0.5630,0.00,0.00,0.00,2.04,10,1593580836,15.26,1593580349,32.89779,-117.31195,2,11,1.10,0.08,5.9,5.6,5813,25.0,1593581047,32.90687,-117.33022
2.1,CalCOFI Line 90 (Magnus),deployed,Wave Glider,--,1593581879,2020,07,01,05,37,59,32.89772,-117.30783,6.4,321.80,1.52,0.19,4.67,1.85,18.60,,78.10,,,14.73,29.92,29.92,,1.15,655.33,18.70,0.0299,,,,1570.00,0.0000,0.5630,0.00,0.00,0.00,2.04,10,1593581610,15.26,1593581118,32.89772,-117.30783,2,11,1.06,0.09,6.1,5.8,5395,26.4,1593581879,32.87712,-117.23459
2.1,CalCOFI Line 90 (Magnus),deployed,Wave Glider,--,1593582655,2020,07,01,05,50,55,32.89778,-117.30345,9.0,138.85,2.45,0.19,7.00,2.99,18.60,,77.60,,,14.63,29.91,29.91,,10.40,665.40,18.80,0.0299,,,,1580.00,0.0000,0.5630,0.00,0.00,0.00,2.04,10,1593582379,15.26,1593581947,32.89778,-117.30345,2,11,0.64,0.07,6.3,6.8,3939,141.5,1593582655,32.90742,-117.23459
2.1,CalCOFI Line 90 (Magnus),deployed,Wave Glider,--,1593583482,2020,07,01,06,04,42,32.89341,-117.30215,6.0,123.65,3.27,0.00,7.00,3.98,18.70,,75.70,,,14.34,29.91,29.91,,10.40,673.15,18.90,0.0303,,,,1630.00,0.0000,0.5630,0.00,0.00,0.00,2.04,10,1593583209,15.26,1593582718,32.89341,-117.30215,2,11,0.70,0.10,4.7,5.3,6202,189.1,1593583482,32.90742,-117.23459
2.1,CalCOFI Line 90 (Magnus),deployed,Wave Glider,--,1593584258,2020,07,01,06,17,38,32.88960,-117.30417,2.4,66.77,1.94,0.19,5.05,2.37,18.70,,74.80,,,14.15,29.91,29.91,,10.40,670.67,18.90,0.0303,,,,1670.00,0.0000,0.5630,0.00,0.00,0.00,2.04,10,1593583981,15.26,1593583552,32.88960,-117.30417,2,10,1.09,0.11,4.7,4.9,6781,300.4,1593584258,32.91587,-117.29221
2.1,CalCOFI Line 90 (Magnus),deployed,Wave Glider,--,1593585088,2020,07,01,06,31,28,32.88997,-117.30843,2.1,9.33,3.54,0.58,7.58,4.31,18.80,,76.10,,,14.52,29.91,29.91,,10.40,687.22,19.00,0.0303,,,,1670.00,0.0000,0.5630,0.00,0.00,0.00,2.04,10,1593584814,15.26,1593584326,32.88997,-117.30843,2,10,1.21,0.09,6.2,6.9,6587,313.9,1593585088,32.87657,-117.33022
2.1,CalCOFI Line 90 (Magnus),deployed,Wave Glider,--,1593585864,2020,07,01,06,44,24,32.89089,-117.31250,-1.4,320.40,3.34,0.58,6.61,4.08,18.80,,75.80,,,14.46,29.91,29.91,,10.40,686.39,19.10,0.0303,,,,1670.00,0.0000,0.5630,0.00,0.00,0.00,2.04,10,1593585588,15.26,1593585157,32.89089,-117.31250,2,10,1.22,0.15,6.5,8.1,6729,312.8,1593585864,32.86815,-117.27261
2.1,CalCOFI Line 90 (Magnus),deployed,Wave Glider,--,1593586635,2020,07,01,06,57,15,32.89174,-117.31649,-0.1,303.88,3.09,0.58,7.19,3.77,18.80,,75.80,,,14.46,29.90,29.90,,19.64,697.83,19.10,0.0303,,,,1670.00,0.0000,0.5630,0.00,0.00,0.00,2.04,10,1593586421,15.26,1593585931,32.89174,-117.31649,2,10,1.24,0.12,6.0,7.9,6789,312.0,1593586635,32.87657,-117.33022
2.1,CalCOFI Line 90 (Magnus),deployed,Wave Glider,--,1593587409,2020,07,01,07,10,09,32.89257,-117.32017,-3.1,284.79,4.84,1.94,8.36,5.90,18.90,,76.60,,,14.72,29.90,29.90,,19.64,713.02,19.10,0.0303,,,,1670.00,0.0000,0.5630,0.00,0.00,0.00,2.04,10,1593587193,15.26,1593586704,32.89257,-117.32017,2,10,1.21,0.15,5.0,5.9,6848,312.6,1593587409,32.87657,-117.33022
2.1,CalCOFI Line 90 (Magnus),deployed,Wave Glider,--,1593588183,2020,07,01,07,23,03,32.89334,-117.32391,2.0,299.21,4.41,1.94,8.16,5.38,18.80,,75.10,,,14.31,29.90,29.90,,19.64,695.88,19.10,0.0303,,,,1690.00,0.0000,0.5630,0.00,0.00,0.00,2.04,10,1593587966,15.26,1593587477,32.89334,-117.32391,2,8,1.13,0.15,6.1,5.1,6768,308.4,1593588183,32.87657,-117.33022
2.1,CalCOFI Line 90 (Magnus),deployed,Wave Glider,--,1593588949,2020,07,01,07,35,49,32.89414,-117.32812,0.9,297.57,4.55,1.36,7.39,5.55,18.90,,75.90,,,14.57,29.89,29.89,,28.90,722.51,19.20,0.0303,,,,1690.00,0.0000,0.5630,0.00,0.00,0.00,2.04,10,1593588739,15.26,1593588250,32.89414,-117.32812,2,8,1.25,0.13,5.0,5.7,6825,312.5,1593588949,32.90687,-117.33022
2.1,CalCOFI Line 90 (Magnus),deployed,Wave Glider,--,1593589729,2020,07,01,07,48,49,32.89502,-117.33206,-2.8,283.02,4.76,2.14,8.16,5.81,18.90,,76.60,,,14.72,29.89,29.89,,28.90,724.46,19.20,0.0303,,,,1700.00,0.0000,0.5630,0.00,0.00,0.00,2.04,10,1593589513,15.26,1593589023,32.89502,-117.33206,2,10,1.29,0.11,5.3,6.3,6833,310.2,1593589729,32.87657,-117.33022
2.1,CalCOFI Line 90 (Magnus),deployed,Wave Glider,--,1593590500,2020,07,01,08,01,40,32.89590,-117.33620,-1.5,280.81,3.64,0.97,7.19,4.43,18.80,,74.00,,,14.08,29.89,29.89,,28.90,704.27,19.10,0.0303,,,,1700.00,0.0000,0.5630,0.00,0.00,0.00,2.04,10,1593590287,15.26,1593589797,32.89590,-117.33620,2,10,1.22,0.14,6.3,5.3,6837,312.0,1593590500,32.92429,-117.34988
2.1,CalCOFI Line 90 (Magnus),deployed,Wave Glider,--,1593591275,2020,07,01,08,14,35,32.89668,-117.33999,-0.7,259.78,3.95,0.39,7.19,4.81,18.80,,73.20,,,13.92,29.89,29.89,,28.90,702.05,19.10,0.0303,,,,1700.00,0.0000,0.5630,0.00,0.00,0.00,2.04,10,1593591059,15.26,1593590571,32.89668,-117.33999,2,11,1.33,0.11,5.6,4.6,6822,311.6,1593591275,32.90687,-117.33022
2.1,CalCOFI Line 90 (Magnus),deployed,Wave Glider,--,1593592047,2020,07,01,08,27,27,32.89754,-117.34388,-1.6,268.33,3.67,0.39,7.19,4.48,18.80,,73.90,,,14.06,29.89,29.89,,28.90,704.00,19.10,0.0303,,,,1710.00,0.0000,0.5630,0.00,0.00,0.00,2.04,10,1593591834,15.26,1593591344,32.89754,-117.34388,2,10,1.24,0.15,4.7,5.7,6520,308.1,1593592047,32.90687,-117.33022
2.1,CalCOFI Line 90 (Magnus),deployed,Wave Glider,--,1593592834,2020,07,01,08,40,34,32.89834,-117.34787,1.4,280.72,3.54,0.19,7.19,4.31,18.80,,73.20,,,13.92,29.89,29.89,,28.90,702.05,19.20,0.0303,,,,1710.00,0.0000,0.5630,0.00,0.00,0.00,2.04,10,1593592607,15.26,1593592118,32.89834,-117.34787,2,8,1.22,0.13,6.1,4.7,6772,310.6,1593592834,32.90687,-117.33022
2.1,CalCOFI Line 90 (Magnus),deployed,Wave Glider,--,1593593597,2020,07,01,08,53,17,32.89928,-117.35184,2.7,250.08,2.88,0.19,6.42,3.51,18.80,,73.10,,,13.90,29.89,29.89,,28.90,701.77,19.20,0.0303,,,,1710.00,0.0000,0.5630,0.00,0.00,0.00,2.04,10,1593593381,15.26,1593592892,32.89928,-117.35184,2,9,1.18,0.12,5.0,6.1,6755,307.7,1593593597,32.91587,-117.29221
2.1,CalCOFI Line 90 (Magnus),deployed,Wave Glider,--,1593594371,2020,07,01,09,06,11,32.90002,-117.35581,3.0,240.50,2.26,0.00,7.19,2.75,18.80,,73.60,,,14.00,29.89,29.89,,28.90,703.16,19.10,0.0319,,,,1740.00,0.0000,0.5630,0.00,0.00,0.00,2.04,10,1593594155,15.26,1593593664,32.90002,-117.35581,2,10,1.24,0.12,4.6,4.7,6845,311.3,1593594371,32.90687,-117.33022
2.1,CalCOFI Line 90 (Magnus),deployed,Wave Glider,--,1593595137,2020,07,01,09,18,57,32.90091,-117.35964,3.7,314.35,2.33,0.19,6.03,2.84,18.80,,73.80,,,14.04,29.89,29.89,,28.90,703.72,19.20,0.0319,,,,1740.00,0.0000,0.5630,0.00,0.00,0.00,2.04,10,1593594929,15.26,1593594439,32.90091,-117.35964,2,11,1.11,0.09,4.4,4.6,6881,309.6,1593595137,32.90687,-117.33022
2.1,CalCOFI Line 90 (Magnus),deployed,Wave Glider,--,1593595928,2020,07,01,09,32,08,32.90168,-117.36343,2.9,266.44,4.18,0.58,6.61,5.10,18.80,,74.50,,,14.19,29.89,29.89,,28.90,705.66,19.10,0.0319,,,,1740.00,0.0000,0.5630,0.00,0.00,0.00,2.04,10,1593595704,15.26,1593595213,32.90168,-117.36343,2,11,1.21,0.13,5.5,6.2,6765,309.1,1593595928,32.90687,-117.33022
2.1,CalCOFI Line 90 (Magnus),deployed,Wave Glider,--,1593596693,2020,07,01,09,44,53,32.90256,-117.36750,4.6,261.57,3.21,0.19,7.19,3.91,18.70,,73.20,,,13.82,29.89,29.89,,28.90,689.14,19.00,0.0319,,,,1740.00,0.0000,0.5630,0.00,0.00,0.00,2.04,10,1593596477,15.26,1593595987,32.90256,-117.36750,2,10,1.19,0.09,4.2,4.1,6807,308.1,1593596693,32.90687,-117.33022
2.1,CalCOFI Line 90 (Magnus),deployed,Wave Glider,--,1593597465,2020,07,01,09,57,45,32.90342,-117.37163,1.6,268.25,3.44,0.58,7.39,4.19,18.70,,74.50,,,14.09,29.88,29.88,,38.15,704.17,19.00,0.0323,,,,1770.00,0.0000,0.5630,0.00,0.00,0.00,2.04,10,1593597251,15.26,1593596761,32.90342,-117.37163,2,10,1.19,0.09,5.6,4.5,6493,306.8,1593597465,32.94556,-117.38788
2.1,CalCOFI Line 90 (Magnus),deployed,Wave Glider,--,1593598242,2020,07,01,10,10,42,32.90438,-117.37567,3.5,255.11,4.47,1.56,7.58,5.45,18.70,,75.20,,,14.24,29.88,29.88,1011.88,38.15,706.10,19.00,0.0323,,,,1810.00,0.0000,0.5630,0.00,0.00,0.00,2.04,10,1593598025,15.26,1593597535,32.90438,-117.37567,2,8,1.23,0.10,5.0,4.5,6264,304.7,1593598242,32.91527,-117.38788
2.1,CalCOFI Line 90 (Magnus),deployed,Wave Glider,--,1593599016,2020,07,01,10,23,36,32.90521,-117.37970,0.8,258.72,4.34,1.94,7.00,5.29,18.70,,74.50,,,14.09,29.88,29.88,1011.88,38.15,704.17,19.00,0.0323,,,,1810.00,0.0000,0.5630,0.00,0.00,0.00,2.04,10,1593598799,15.26,1593598310,32.90521,-117.37970,2,8,1.21,0.11,4.4,5.3,6678,304.4,1593599016,32.92429,-117.34988
2.1,CalCOFI Line 90 (Magnus),deployed,Wave Glider,--,1593599781,2020,07,01,10,36,21,32.90607,-117.38380,-3.9,247.42,4.20,1.17,7.97,5.12,18.60,,73.10,,,13.70,29.88,29.88,1011.88,38.15,687.40,19.00,0.0323,,,,1810.00,0.0000,0.5630,0.00,0.00,0.00,2.04,10,1593599573,15.26,1593599084,32.90607,-117.38380,2,10,1.21,0.13,4.4,5.1,6666,305.4,1593599781,32.92429,-117.34988
2.1,CalCOFI Line 90 (Magnus),deployed,Wave Glider,--,1593600565,2020,07,01,10,49,25,32.90695,-117.38810,-2.9,246.19,3.85,0.00,6.61,4.69,18.60,,73.00,,,13.68,29.87,29.87,1011.54,47.41,698.57,18.90,0.0323,,,,1840.00,0.0000,0.5630,0.00,0.00,0.00,2.04,10,1593600348,15.26,1593599858,32.90695,-117.38810,2,9,1.21,0.10,4.7,4.7,6570,303.0,1593600565,32.90687,-117.33022
2.1,CalCOFI Line 90 (Magnus),deployed,Wave Glider,--,1593601339,2020,07,01,11,02,19,32.90792,-117.39258,-5.5,253.69,3.19,0.58,5.64,3.89,18.60,,73.30,,,13.75,29.88,29.88,1011.88,38.15,687.95,18.90,0.0323,,,,1860.00,0.0000,0.5630,0.00,0.00,0.00,2.04,10,1593601122,15.26,1593600633,32.90792,-117.39258,2,10,1.09,0.09,4.3,4.1,6616,299.8,1593601339,32.90625,-117.42586
2.1,CalCOFI Line 90 (Magnus),deployed,Wave Glider,--,1593602105,2020,07,01,11,15,05,32.90887,-117.39702,-2.8,237.14,3.36,1.17,6.03,4.10,18.50,,73.70,,,13.73,29.87,29.87,1011.54,47.41,687.57,18.90,0.0323,,,,1880.00,0.0000,0.5630,0.00,0.00,0.00,2.04,10,1593601897,15.26,1593601408,32.90887,-117.39702,2,10,1.16,0.15,5.5,5.3,6692,300.0,1593602105,32.91714,-118.11528
2.1,CalCOFI Line 90 (Magnus),deployed,Wave Glider,--,1593602947,2020,07,01,11,29,07,32.90993,-117.40138,-3.7,238.68,3.73,0.97,7.00,4.55,18.60,,73.70,,,13.83,29.87,29.87,1011.54,47.41,700.49,18.90,0.0323,,,,1930.00,0.0000,0.5630,0.00,0.00,0.00,2.04,10,1593602672,15.26,1593602181,32.90993,-117.40138,2,9,1.14,0.14,4.1,3.7,6356,296.7,1593602947,32.91527,-117.38788
2.1,CalCOFI Line 90 (Magnus),deployed,Wave Glider,--,1593603718,2020,07,01,11,41,58,32.91092,-117.40620,-1.4,248.74,3.38,0.97,7.00,4.12,18.50,,73.40,,,13.67,29.87,29.87,1011.54,47.41,686.75,18.90,0.0327,,,,2000.00,0.0000,0.5630,0.00,0.00,0.00,2.04,10,1593603446,15.26,1593603015,32.91092,-117.40620,2,9,1.11,0.13,4.5,5.1,6674,293.6,1593603718,32.91527,-117.38788
2.1,CalCOFI Line 90 (Magnus),deployed,Wave Glider,--,1593604490,2020,07,01,11,54,50,32.91186,-117.41090,-2.6,217.92,3.15,0.19,6.80,3.84,18.50,,74.50,,,13.90,29.87,29.87,1011.54,47.41,689.75,18.90,0.0327,,,,2000.00,0.0000,0.5630,0.00,0.00,0.00,2.04,10,1593604280,15.26,1593603789,32.91186,-117.41090,2,9,1.22,0.12,4.5,3.5,6606,334.9,1593604490,32.91527,-117.38788
2.1,CalCOFI Line 90 (Magnus),deployed,Wave Glider,--,1593605330,2020,07,01,12,08,50,32.91443,-117.41206,-4.6,159.75,1.81,0.19,4.67,2.20,18.50,,73.80,,,13.75,29.87,29.87,1011.54,47.41,687.84,18.90,0.0327,,,,2010.00,0.0000,0.5630,0.00,0.00,0.00,2.04,10,1593605053,15.26,1593604563,32.91443,-117.41206,2,10,1.26,0.12,5.7,3.9,6718,354.7,1593605330,32.91527,-117.38788
2.1,CalCOFI Line 90 (Magnus),deployed,Wave Glider,--,1593606102,2020,07,01,12,21,42,32.91756,-117.41201,-1.7,249.20,2.57,0.19,6.03,3.13,18.50,,73.00,,,13.59,29.87,29.87,1011.54,47.41,685.66,18.90,0.0327,,,,2010.00,0.0000,0.5630,0.00,0.00,0.00,2.04,10,1593605827,15.26,1593605396,32.91756,-117.41201,2,11,1.31,0.10,5.8,4.3,6373,353.6,1593606102,32.96299,-117.40758
2.1,CalCOFI Line 90 (Magnus),deployed,Wave Glider,--,1593606871,2020,07,01,12,34,31,32.92054,-117.41199,-1.7,252.67,2.84,0.39,5.44,3.46,18.50,,73.70,,,13.73,29.87,29.87,1011.54,47.41,687.57,18.80,0.0327,,,,2010.00,0.0000,0.5630,0.00,0.00,0.00,2.04,10,1593606660,15.26,1593606170,32.92054,-117.41199,2,10,1.27,0.11,6.7,3.5,6356,348.9,1593606871,32.94556,-117.38788
2.1,CalCOFI Line 90 (Magnus),deployed,Wave Glider,--,1593607649,2020,07,01,12,47,29,32.92374,-117.41208,2.0,232.45,3.95,1.36,6.42,4.81,18.60,,74.50,,,14.00,29.87,29.87,1011.54,47.41,702.68,18.90,0.0327,,,,2010.00,0.0000,0.5630,0.00,0.00,0.00,2.04,10,1593607433,15.26,1593606944,32.92374,-117.41208,2,10,1.30,0.09,4.1,4.1,6518,348.6,1593607649,32.92365,-117.44557
2.1,CalCOFI Line 90 (Magnus),deployed,Wave Glider,--,1593608482,2020,07,01,13,01,22,32.92693,-117.41206,-1.2,215.71,2.74,0.19,5.83,3.34,18.50,,73.70,,,13.73,29.87,29.87,1011.54,47.41,687.57,18.90,0.0327,,,,2010.00,0.0000,0.5630,0.00,0.00,0.00,2.04,10,1593608208,15.26,1593607718,32.92693,-117.41206,2,11,1.25,0.11,4.3,3.6,6447,348.4,1593608482,32.95514,-117.25418
2.1,CalCOFI Line 90 (Magnus),deployed,Wave Glider,--,1593609265,2020,07,01,13,14,25,32.93018,-117.41203,-2.1,220.80,,0.19,5.05,,18.50,,74.40,,,13.88,29.88,29.88,1011.88,38.15,678.03,18.90,0.0327,,,,2010.00,0.0000,0.5630,0.00,0.00,0.00,2.04,10,1593608982,15.26,1593608552,32.93018,-117.41203,2,11,1.23,0.10,4.4,3.4,6355,348.4,1593609265,32.92216,-117.63695
2.1,CalCOFI Line 90 (Magnus),deployed,Wave Glider,--,1593610032,2020,07,01,13,27,12,32.93357,-117.41201,-0.1,194.27,2.47,0.19,6.03,3.01,18.60,,74.60,,,14.02,29.88,29.88,1011.88,38.15,691.51,18.90,0.0327,,,,2010.00,0.0000,0.5630,0.00,0.00,0.00,2.04,10,1593609816,15.26,1593609327,32.93357,-117.41201,2,12,1.24,0.11,4.4,2.9,6611,344.6,1593610032,32.96230,-117.50330
2.1,CalCOFI Line 90 (Magnus),deployed,Wave Glider,--,1593610804,2020,07,01,13,40,04,32.93683,-117.41203,0.0,155.63,2.00,0.00,5.44,2.44,18.50,,73.20,,,13.63,29.88,29.88,1011.88,38.15,674.76,18.90,0.0327,,,,2010.00,0.0000,0.5630,0.00,0.00,0.00,2.04,10,1593610591,15.26,1593610100,32.93683,-117.41203,2,11,1.17,0.11,3.9,3.2,6483,346.0,1593610804,32.91527,-117.38788
2.1,CalCOFI Line 90 (Magnus),deployed,Wave Glider,--,1593611581,2020,07,01,13,53,01,32.94015,-117.41199,-1.1,158.19,4.06,0.78,8.75,4.95,18.60,,75.90,,,14.28,29.89,29.89,1012.22,28.90,683.63,18.90,0.0327,,,,2010.00,0.0000,0.5630,0.00,0.00,0.00,2.04,10,1593611366,15.26,1593610874,32.94015,-117.41199,2,10,1.17,0.09,5.7,3.7,5949,347.6,1593611581,32.94556,-117.38788
2.1,CalCOFI Line 90 (Magnus),deployed,Wave Glider,--,1593612532,2020,07,01,14,08,52,32.94330,-117.41208,-1.7,152.46,2.08,0.19,6.03,2.54,18.40,,74.10,,,13.72,29.89,29.89,1012.22,28.90,652.84,18.80,0.0327,,,,2010.00,0.0000,0.5630,0.00,0.00,0.00,2.04,10,1593612139,15.26,1593611649,32.94330,-117.41208,2,9,1.15,0.11,4.4,4.0,6658,349.2,1593612532,32.94556,-117.38788
2.1,CalCOFI Line 90 (Magnus),deployed,Wave Glider,--,1593613309,2020,07,01,14,21,49,32.94726,-117.41209,-0.9,297.51,1.36,0.19,3.50,1.66,18.40,,74.10,,,13.72,29.89,29.89,1012.22,28.90,652.84,18.80,0.0327,,,,2010.00,0.0000,0.5630,0.00,0.00,0.00,2.04,10,1593612914,15.26,1593612603,32.94726,-117.41209,2,9,1.21,0.10,4.6,3.4,6370,345.2,1593613309,32.94556,-117.38788
2.1,CalCOFI Line 90 (Magnus),deployed,Wave Glider,--,1593614085,2020,07,01,14,34,45,32.95046,-117.41205,-1.8,249.99,2.47,0.39,4.86,3.01,18.50,,74.50,,,13.90,29.90,29.90,1012.56,19.64,655.42,18.90,0.0327,,,,2010.00,0.0000,0.5630,0.00,0.00,0.00,2.04,10,1593613867,15.26,1593613377,32.95046,-117.41205,2,9,1.18,0.10,4.7,3.2,6339,343.7,1593614085,32.96299,-117.40758
2.1,CalCOFI Line 90 (Magnus),deployed,Wave Glider,--,1593614858,2020,07,01,14,47,38,32.95349,-117.41203,2.8,216.45,3.27,0.97,7.00,3.98,18.50,,75.30,,,14.06,29.90,29.90,1012.56,19.64,657.59,18.90,0.0327,,,,2010.00,0.0000,0.5630,0.00,0.00,0.00,2.04,10,1593614641,15.26,1593614152,32.95349,-117.41203,2,10,1.02,0.12,3.4,5.1,6240,277.5,1593614858,32.94556,-117.38788
2.1,CalCOFI Line 90 (Magnus),deployed,Wave Glider,--,1593615634,2020,07,01,15,00,34,32.95380,-117.41499,2.9,239.01,4.67,1.56,8.16,5.69,18.40,,76.60,,,14.23,29.91,29.91,1012.89,10.40,636.73,18.80,0.0327,,,,2030.00,0.0000,0.5630,0.00,0.00,0.00,2.04,10,1593615416,15.26,1593614927,32.95380,-117.41499,2,10,0.86,0.11,3.8,3.7,4229,248.1,1593615634,32.96299,-117.40758
2.1,CalCOFI Line 90 (Magnus),deployed,Wave Glider,--,1593616407,2020,07,01,15,13,27,32.95244,-117.41698,4.5,243.44,5.23,2.53,9.33,6.38,18.30,,76.70,,,14.15,29.91,29.91,1012.89,10.40,624.03,18.80,0.0327,,,,2030.00,0.0000,0.5630,0.00,0.00,0.00,2.04,10,1593616191,15.26,1593615701,32.95244,-117.41698,2,10,0.43,0.12,3.9,3.9,3858,182.8,1593616407,32.95667,-116.87134
2.1,CalCOFI Line 90 (Magnus),deployed,Wave Glider,--,1593617179,2020,07,01,15,26,19,32.94908,-117.41696,4.5,245.09,5.79,3.11,9.14,7.06,18.30,,78.30,,,14.47,29.91,29.91,1012.89,10.40,628.33,18.80,0.0327,,,,2030.00,0.0000,0.5630,0.00,0.00,0.00,2.04,10,1593616965,15.26,1593616475,32.94908,-117.41696,2,10,0.29,0.08,3.8,3.4,3738,184.1,1593617179,32.95458,-117.34988
2.1,CalCOFI Line 90 (Magnus),deployed,Wave Glider,--,1593617955,2020,07,01,15,39,15,32.94582,-117.41689,2.5,243.85,4.65,1.94,7.78,5.66,18.30,,77.10,,,14.23,29.91,29.91,1012.89,10.40,625.11,18.70,0.0327,,,,2030.00,0.0000,0.5630,0.00,0.00,0.00,2.04,10,1593617739,15.26,1593617250,32.94582,-117.41689,2,10,0.49,0.12,3.6,3.2,3911,190.4,1593617955,32.95394,-117.44557
2.1,CalCOFI Line 90 (Magnus),deployed,Wave Glider,--,1593618730,2020,07,01,15,52,10,32.94254,-117.41704,3.9,241.30,3.38,0.58,6.03,4.12,18.30,,77.20,,,14.25,29.91,29.91,1012.89,10.40,625.38,18.80,0.0327,,,,2030.00,0.0000,0.5630,0.00,0.00,0.00,2.04,10,1593618514,15.26,1593618025,32.94254,-117.41704,2,10,0.60,0.11,3.4,4.2,3923,184.4,1593618730,32.96299,-117.40758
2.1,CalCOFI Line 90 (Magnus),deployed,Wave Glider,--,1593619496,2020,07,01,16,04,56,32.93885,-117.41703,2.3,234.74,3.48,0.78,6.22,4.24,18.40,,75.90,,,14.09,29.91,29.91,1012.89,10.40,634.83,18.90,0.0327,,,,2030.00,0.0000,0.5630,0.00,0.00,0.00,2.04,10,1593619289,15.26,1593618798,32.93885,-117.41703,2,9,0.66,0.11,3.7,3.1,3835,185.6,1593619496,32.91527,-117.38788
2.1,CalCOFI Line 90 (Magnus),deployed,Wave Glider,--,1593620271,2020,07,01,16,17,51,32.93524,-117.41706,3.3,200.82,4.82,2.14,7.78,5.88,18.50,,75.20,,,14.04,29.91,29.91,1012.89,10.40,645.88,18.90,0.0327,,,,2030.00,0.0000,0.5630,0.00,0.00,0.00,2.04,10,1593620063,15.26,1593619572,32.93524,-117.41706,2,10,0.72,0.09,3.1,3.7,3568,182.9,1593620271,32.94556,-117.38788
2.1,CalCOFI Line 90 (Magnus),deployed,Wave Glider,--,1593621054,2020,07,01,16,30,54,32.93181,-117.41699,0.7,219.72,5.00,2.53,7.97,6.09,18.60,,76.60,,,14.42,29.91,29.91,1012.89,10.40,662.66,19.00,0.0327,,,,2030.00,0.0000,0.5630,0.00,0.00,0.00,2.04,10,1593620837,15.26,1593620346,32.93181,-117.41699,2,10,0.64,0.08,3.8,3.4,3663,187.0,1593621054,32.91527,-117.38788
2.1,CalCOFI Line 90 (Magnus),deployed,Wave Glider,--,1593621824,2020,07,01,16,43,44,32.92819,-117.41703,-3.8,205.72,5.77,3.11,8.36,7.04,18.50,,77.10,,,14.43,29.91,29.91,1012.89,10.40,651.05,19.00,0.0327,,,,2030.00,0.0000,0.5630,0.00,0.00,0.00,2.04,10,1593621611,15.26,1593621120,32.92819,-117.41703,2,10,0.62,0.09,2.8,3.8,4235,186.2,1593621824,32.90625,-117.42586
2.1,CalCOFI Line 90 (Magnus),deployed,Wave Glider,--,1593622600,2020,07,01,16,56,40,32.92450,-117.41691,-3.3,221.39,6.65,3.89,9.14,8.11,18.40,,76.80,,,14.27,29.92,29.92,1013.23,1.15,625.83,19.00,0.0327,,,,2030.00,0.0000,0.5630,0.00,0.00,0.00,2.04,10,1593622384,15.26,1593621894,32.92450,-117.41691,2,9,0.58,0.08,3.5,3.4,3924,190.9,1593622600,32.91527,-117.38788
2.1,CalCOFI Line 90 (Magnus),deployed,Wave Glider,--,1593623372,2020,07,01,17,09,32,32.92106,-117.41706,-2.3,217.19,6.42,3.89,9.53,7.82,18.40,,78.70,,,14.65,29.92,29.92,1013.23,1.15,630.97,19.00,0.0327,,,,2040.00,0.0000,0.5630,0.00,0.00,0.00,2.04,10,1593623158,15.26,1593622668,32.92106,-117.41706,2,8,0.52,0.12,2.9,3.2,3813,185.6,1593623372,32.90625,-117.42586
2.1,CalCOFI Line 90 (Magnus),deployed,Wave Glider,--,1593624143,2020,07,01,17,22,23,32.91736,-117.41703,-5.4,223.00,6.30,3.30,8.75,7.68,18.40,,77.40,,,14.39,29.92,29.92,1013.23,1.15,627.45,19.10,0.0327,,,,2060.00,0.0000,0.5630,0.00,0.00,0.00,2.04,10,1593623933,15.26,1593623442,32.91736,-117.41703,2,7,0.43,0.09,3.6,3.4,3796,185.9,1593624143,32.92670,-116.67991
2.1,CalCOFI Line 90 (Magnus),deployed,Wave Glider,--,1593624919,2020,07,01,17,35,19,32.91327,-117.41698,-3.2,210.73,8.28,4.08,11.86,10.10,18.30,,80.50,,,14.90,29.92,29.92,1013.23,1.15,622.81,19.10,0.0327,,,,2070.00,0.0000,0.5630,0.00,0.00,0.00,2.04,10,1593624706,15.26,1593624217,32.91327,-117.41698,2,8,0.49,0.08,3.6,5.5,4097,93.8,1593624919,32.90625,-117.42586
2.1,CalCOFI Line 90 (Magnus),deployed,Wave Glider,--,1593625693,2020,07,01,17,48,13,32.91203,-117.41379,0.6,216.75,8.63,5.25,11.86,10.52,18.40,,82.30,,,15.34,29.92,29.92,1013.23,1.15,640.71,19.10,0.0327,,,,2070.00,0.0000,0.5630,0.00,0.00,0.00,2.04,10,1593625481,15.26,1593624989,32.91203,-117.41379,2,8,1.25,0.11,6.2,5.1,6884,14.6,1593625693,32.91527,-117.38788
2.1,CalCOFI Line 90 (Magnus),deployed,Wave Glider,--,1593626468,2020,07,01,18,01,08,32.91367,-117.41198,-0.5,241.35,9.23,5.83,12.44,11.26,18.30,,82.20,,,15.23,29.92,29.92,1013.23,1.15,627.38,19.10,0.0331,,,,2120.00,0.0000,0.5630,0.00,0.00,0.00,2.04,10,1593626254,15.26,1593625762,32.91367,-117.41198,2,9,1.81,0.14,7.3,4.4,7003,333.7,1593626468,32.91527,-117.38788
2.1,CalCOFI Line 90 (Magnus),deployed,Wave Glider,--,1593627242,2020,07,01,18,14,02,32.91643,-117.41191,-1.2,252.15,9.58,0.00,12.83,11.68,18.20,,83.00,,,15.28,29.92,29.92,1013.23,1.15,616.46,19.10,0.0331,,,,2120.00,0.0000,0.5630,0.00,0.00,0.00,2.04,10,1593627026,15.26,1593626537,32.91643,-117.41191,2,10,2.02,0.12,6.7,5.0,6942,330.3,1593627242,32.91527,-117.38788
2.1,CalCOFI Line 90 (Magnus),deployed,Wave Glider,--,1593628014,2020,07,01,18,26,54,32.91927,-117.41190,-2.3,254.32,9.72,6.61,13.02,11.85,18.10,,83.00,,,15.18,29.93,29.93,1013.57,-8.09,591.95,19.00,0.0331,,,,2120.00,0.0000,0.5630,0.00,0.00,0.00,2.04,10,1593627801,15.26,1593627310,32.91927,-117.41190,2,9,1.90,0.15,8.6,3.9,6960,327.7,1593628014,32.94556,-117.38788
2.1,CalCOFI Line 90 (Magnus),deployed,Wave Glider,--,1593628790,2020,07,01,18,39,50,32.92232,-117.41188,0.0,255.91,9.99,6.03,13.41,12.18,18.00,,83.80,,,15.23,29.92,29.92,1013.23,1.15,592.44,18.90,0.0331,,,,2130.00,0.0000,0.5630,0.00,0.00,0.00,2.04,10,1593628575,15.26,1593628085,32.92232,-117.41188,2,9,1.99,0.14,7.9,3.9,6989,328.1,1593628790,32.91527,-117.38788
2.1,CalCOFI Line 90 (Magnus),deployed,Wave Glider,--,1593629562,2020,07,01,18,52,42,32.92504,-117.41183,0.3,267.12,11.10,6.03,14.39,13.53,17.90,,85.20,,,15.39,29.92,29.92,1013.23,1.15,583.04,18.90,0.0331,,,,2150.00,0.0000,0.5630,0.00,0.00,0.00,2.04,10,1593629350,15.26,1593628859,32.92504,-117.41183,2,9,1.28,0.10,8.1,4.6,4955,296.9,1593629562,32.94556,-117.38788
2.1,CalCOFI Line 90 (Magnus),deployed,Wave Glider,--,1593630339,2020,07,01,19,05,39,32.92491,-117.41248,4.8,251.09,10.63,6.61,14.19,12.96,17.80,,84.60,,,15.19,29.93,29.93,1013.57,-8.09,556.93,18.90,0.0335,,,,2170.00,0.0000,0.5630,0.00,0.00,0.00,2.04,10,1593630123,15.26,1593629633,32.92491,-117.41248,2,8,1.18,0.17,7.6,6.0,6771,317.3,1593630339,32.91527,-117.38788
2.1,CalCOFI Line 90 (Magnus),deployed,Wave Glider,--,1593631106,2020,07,01,19,18,26,32.92583,-117.41190,3.5,250.17,11.02,7.19,14.39,13.44,17.80,,84.80,,,15.22,29.93,29.93,1013.57,-8.09,557.45,18.80,0.0335,,,,2170.00,0.0000,0.5630,0.00,0.00,0.00,2.04,10,1593630897,15.26,1593630407,32.92583,-117.41190,2,8,1.97,0.15,7.6,4.6,6816,326.4,1593631106,32.94556,-117.38788
2.1,CalCOFI Line 90 (Magnus),deployed,Wave Glider,--,1593631887,2020,07,01,19,31,27,32.92873,-117.41185,3.9,248.72,11.12,7.97,14.39,13.56,17.70,,85.60,,,15.27,29.93,29.93,1013.57,-8.09,546.44,18.70,0.0335,,,,2210.00,0.0000,0.5630,0.00,0.00,0.00,2.04,10,1593631671,15.26,1593631182,32.92873,-117.41185,2,8,2.00,0.21,10.4,5.7,7026,328.5,1593631887,32.91461,-117.48354
2.1,CalCOFI Line 90 (Magnus),deployed,Wave Glider,--,1593632661,2020,07,01,19,44,21,32.93183,-117.41187,2.5,249.89,10.87,7.19,14.39,13.25,17.60,,85.70,,,15.19,29.92,29.92,1013.23,1.15,545.04,18.60,0.0335,,,,2220.00,0.0000,0.5630,0.00,0.00,0.00,2.04,10,1593632446,15.26,1593631957,32.93183,-117.41187,2,8,2.05,0.10,7.8,5.4,6954,329.3,1593632661,32.94556,-117.38788
2.1,CalCOFI Line 90 (Magnus),deployed,Wave Glider,--,1593633437,2020,07,01,19,57,17,32.93482,-117.41199,-0.9,252.66,10.91,7.39,13.80,13.30,17.60,,84.70,,,15.01,29.92,29.92,1013.23,1.15,542.47,18.60,0.0339,,,,2260.00,0.0000,0.5630,0.00,0.00,0.00,2.04,10,1593633221,15.26,1593632732,32.93482,-117.41199,2,9,1.99,0.09,8.3,4.6,7010,328.6,1593633437,32.95394,-117.44557
2.1,CalCOFI Line 90 (Magnus),deployed,Wave Glider,--,1593634270,2020,07,01,20,11,10,32.93798,-117.41201,2.8,251.53,10.13,6.61,13.41,12.35,17.60,,84.70,,,15.01,29.92,29.92,1013.23,1.15,542.47,18.60,0.0339,,,,2260.00,0.0000,0.5630,0.00,0.00,0.00,2.04,10,1593633996,15.26,1593633507,32.93798,-117.41201,2,9,1.96,0.16,8.2,4.2,7040,329.8,1593634270,32.94556,-117.38788
2.1,CalCOFI Line 90 (Magnus),deployed,Wave Glider,--,1593635048,2020,07,01,20,24,08,32.94152,-117.41201,1.9,251.02,9.82,6.22,13.80,11.97,17.70,,85.00,,,15.16,29.93,29.93,1013.57,-8.09,544.88,18.60,0.0339,,,,2270.00,0.0000,0.5630,0.00,0.00,0.00,2.04,10,1593634771,15.26,1593634342,32.94152,-117.41201,2,8,1.86,0.24,7.8,4.9,6942,329.7,1593635048,32.96299,-117.40758
2.1,CalCOFI Line 90 (Magnus),deployed,Wave Glider,--,1593635836,2020,07,01,20,37,16,32.94482,-117.41191,-9.4,253.80,9.21,6.03,12.25,11.23,17.70,,84.00,,,14.98,29.92,29.92,1013.23,1.15,553.74,18.60,0.0350,,,,2290.00,0.0000,0.5630,0.00,0.00,0.00,2.04,10,1593635606,15.26,1593635115,32.94482,-117.41191,2,7,1.82,0.17,7.9,4.1,6910,327.4,1593635836,32.91527,-117.38788
2.1,CalCOFI Line 90 (Magnus),deployed,Wave Glider,--,1593636597,2020,07,01,20,49,57,32.94796,-117.41193,-6.6,248.05,9.45,6.03,12.64,11.52,17.70,,82.70,,,14.74,29.92,29.92,1013.23,1.15,550.37,18.70,0.0350,,,,2300.00,0.0000,0.5630,0.00,0.00,0.00,2.04,10,1593636380,15.26,1593635890,32.94796,-117.41193,2,7,1.75,0.19,6.2,4.4,7028,326.5,1593636597,32.95458,-117.34988
2.1,CalCOFI Line 90 (Magnus),deployed,Wave Glider,--,1593637371,2020,07,01,21,02,51,32.95105,-117.41199,-4.2,251.32,9.16,6.03,12.25,11.16,17.90,,83.20,,,15.02,29.92,29.92,1013.23,1.15,577.79,18.80,0.0350,,,,2300.00,0.0000,0.5630,0.00,0.00,0.00,2.04,10,1593637155,15.26,1593636665,32.95105,-117.41199,2,8,1.74,0.24,6.8,5.1,7030,327.4,1593637371,32.94556,-117.38788
2.1,CalCOFI Line 90 (Magnus),deployed,Wave Glider,--,1593638148,2020,07,01,21,15,48,32.95372,-117.41237,-1.2,267.22,9.88,6.22,13.41,12.04,17.90,,81.50,,,14.70,29.91,29.91,1012.89,10.40,584.78,18.90,0.0350,,,,2310.00,0.0000,0.5630,0.00,0.00,0.00,2.04,10,1593637929,15.26,1593637440,32.95372,-117.41237,2,11,1.17,0.17,5.3,5.5,6452,287.0,1593638148,32.91587,-117.29221
2.1,CalCOFI Line 90 (Magnus),deployed,Wave Glider,--,1593638923,2020,07,01,21,28,43,32.95373,-117.41589,-2.0,257.53,9.47,5.64,13.41,11.54,17.90,,79.90,,,14.40,29.91,29.91,1012.89,10.40,580.58,18.90,0.0350,,,,2360.00,0.0000,0.5630,0.00,0.00,0.00,2.04,10,1593638704,15.26,1593638215,32.95373,-117.41589,2,11,0.50,0.20,9.1,5.2,11725,225.6,1593638923,33.01164,-119.22939
2.1,CalCOFI Line 90 (Magnus),deployed,Wave Glider,--,1593639697,2020,07,01,21,41,37,32.94990,-117.41689,-3.4,251.43,9.95,6.42,14.00,12.13,18.00,,80.00,,,14.51,29.91,29.91,1012.89,10.40,593.85,19.00,0.0358,,,,2370.00,0.0000,0.5630,0.00,0.00,0.00,2.04,10,1593639480,15.26,1593638990,32.94990,-117.41689,2,11,0.15,0.23,5.2,4.7,3885,201.3,1593639697,32.96299,-117.40758
2.1,CalCOFI Line 90 (Magnus),deployed,Wave Glider,--,1593640470,2020,07,01,21,54,30,32.94476,-117.41699,-1.5,251.91,9.84,6.42,12.44,11.99,18.00,,79.90,,,14.49,29.91,29.91,1012.89,10.40,593.59,19.00,0.0358,,,,2380.00,0.0000,0.5630,0.00,0.00,0.00,2.04,10,1593640254,15.26,1593639766,32.94476,-117.41699,2,11,0.06,0.21,5.8,4.5,4089,200.9,1593640470,32.90625,-117.42586
2.1,CalCOFI Line 90 (Magnus),deployed,Wave Glider,--,1593641249,2020,07,01,22,07,29,32.93978,-117.41703,-0.7,255.80,9.27,6.42,12.64,11.30,18.20,,80.50,,,14.81,29.90,29.90,1012.56,19.64,632.67,19.10,0.0358,,,,2410.00,0.0000,0.5630,0.00,0.00,0.00,2.04,10,1593641030,15.26,1593640541,32.93978,-117.41703,2,11,-0.14,0.17,5.4,5.2,3738,197.4,1593641249,32.94556,-117.38788
2.1,CalCOFI Line 90 (Magnus),deployed,Wave Glider,--,1593642022,2020,07,01,22,20,22,32.93476,-117.41704,-0.7,253.81,9.21,6.03,11.86,11.23,18.10,,79.30,,,14.48,29.90,29.90,1012.56,19.64,616.46,19.10,0.0358,,,,2450.00,0.0000,0.5630,0.00,0.00,0.00,2.04,10,1593641806,15.26,1593641316,32.93476,-117.41704,2,11,-0.03,0.16,7.0,5.0,4123,198.6,1593642022,32.94556,-117.38788
2.1,CalCOFI Line 90 (Magnus),deployed,Wave Glider,--,1593642790,2020,07,01,22,33,10,32.92985,-117.41707,3.0,249.53,9.47,6.22,13.02,11.54,18.20,,78.60,,,14.44,29.90,29.90,1012.56,19.64,627.59,19.20,0.0362,,,,2490.00,0.0000,0.5630,0.00,0.00,0.00,2.04,10,1593642581,15.26,1593642090,32.92985,-117.41707,2,10,-0.03,0.15,8.7,5.0,3940,196.1,1593642790,32.90625,-117.42586
2.1,CalCOFI Line 90 (Magnus),deployed,Wave Glider,--,1593643574,2020,07,01,22,46,14,32.92505,-117.41711,4.6,250.68,9.21,4.67,12.05,11.23,18.20,,77.90,,,14.30,29.89,29.89,1012.22,28.90,637.16,19.10,0.0362,,,,2610.00,0.0000,0.5630,0.00,0.00,0.00,2.04,10,1593643355,15.26,1593642865,32.92505,-117.41711,2,11,-0.02,0.14,4.7,4.9,4121,196.2,1593643574,32.89787,-117.36821
2.1,CalCOFI Line 90 (Magnus),deployed,Wave Glider,--,1593644358,2020,07,01,22,59,18,32.92011,-117.41703,3.7,248.59,9.18,5.25,12.44,11.19,18.20,,79.20,,,14.55,29.89,29.89,1012.22,28.90,640.64,19.20,0.0374,,,,2670.00,0.0000,0.5630,0.00,0.00,0.00,2.04,10,1593644130,15.26,1593643640,32.92011,-117.41703,2,11,0.08,0.19,7.5,4.1,3817,196.3,1593644358,32.90625,-117.42586
2.1,CalCOFI Line 90 (Magnus),deployed,Wave Glider,--,1593645121,2020,07,01,23,12,01,32.91490,-117.41707,3.5,241.72,8.20,3.89,12.05,10.00,18.20,,77.20,,,14.16,29.89,29.89,1012.22,28.90,635.29,19.10,0.0374,,,,2690.00,0.0000,0.5630,0.00,0.00,0.00,2.04,10,1593644905,15.26,1593644415,32.91490,-117.41707,2,11,0.47,0.19,8.3,7.2,5008,166.4,1593645121,32.90687,-117.33022
2.1,CalCOFI Line 90 (Magnus),deployed,Wave Glider,--,1593645897,2020,07,01,23,24,57,32.91209,-117.41486,3.1,223.75,7.48,4.08,10.69,9.12,18.20,,78.80,,,14.47,29.89,29.89,1012.22,28.90,639.57,19.20,0.0374,,,,2690.00,0.0000,0.5630,0.00,0.00,0.00,2.04,10,1593645680,15.26,1593645188,32.91209,-117.41486,2,10,1.27,0.14,5.5,6.4,6788,23.1,1593645897,32.90687,-117.33022
2.1,CalCOFI Line 90 (Magnus),deployed,Wave Glider,--,1593646667,2020,07,01,23,37,47,32.91309,-117.41206,4.6,253.74,8.20,5.44,10.89,10.00,18.30,,77.10,,,14.23,29.88,29.88,1011.88,38.15,659.44,19.30,0.0374,,,,2690.00,0.0000,0.5630,0.00,0.00,0.00,2.04,10,1593646453,15.26,1593645960,32.91309,-117.41206,2,9,1.82,0.13,6.2,4.0,6738,334.3,1593646667,32.91527,-117.38788
2.1,CalCOFI Line 90 (Magnus),deployed,Wave Glider,--,1593647438,2020,07,01,23,50,38,32.91606,-117.41211,3.3,250.71,7.91,4.47,11.08,9.65,18.40,,76.90,,,14.29,29.88,29.88,1011.88,38.15,671.87,19.30,0.0374,,,,2700.00,0.0000,0.5630,0.00,0.00,0.00,2.04,10,1593647224,15.26,1593646735,32.91606,-117.41211,2,10,1.91,0.15,6.5,4.7,6864,334.6,1593647438,32.91527,-117.38788
2.1,CalCOFI Line 90 (Magnus),deployed,Wave Glider,--,1593648276,2020,07,02,00,04,36,32.91923,-117.41206,2.4,249.76,7.56,4.67,10.11,9.22,18.40,,76.60,,,14.23,29.88,29.88,1011.88,38.15,671.06,19.30,0.0374,,,,2710.00,0.0000,0.5630,0.00,0.00,0.00,2.04,10,1593647999,15.26,1593647510,32.91923,-117.41206,2,10,1.55,0.16,6.3,4.4,6531,333.8,1593648276,32.91527,-117.38788
2.1,CalCOFI Line 90 (Magnus),deployed,Wave Glider,--,1593649050,2020,07,02,00,17,30,32.92270,-117.41203,0.6,250.79,7.04,3.89,9.72,8.58,18.50,,76.50,,,14.31,29.87,29.87,1011.54,47.41,695.20,19.20,0.0374,,,,2710.00,0.0000,0.5630,0.00,0.00,0.00,2.04,10,1593648774,15.26,1593648345,32.92270,-117.41203,2,11,1.62,0.13,6.3,3.8,6696,334.3,1593649050,32.94556,-117.38788
2.1,CalCOFI Line 90 (Magnus),deployed,Wave Glider,--,1593649824,2020,07,02,00,30,24,32.92579,-117.41208,1.1,258.34,7.74,4.67,10.50,9.43,18.50,,77.30,,,14.47,29.87,29.87,1011.54,47.41,697.38,19.30,0.0374,,,,2720.00,0.0000,0.5630,0.00,0.00,0.00,2.04,10,1593649609,15.26,1593649120,32.92579,-117.41208,2,12,1.69,0.16,6.6,4.5,6743,336.4,1593649824,32.91527,-117.38788
2.1,CalCOFI Line 90 (Magnus),deployed,Wave Glider,--,1593650595,2020,07,02,00,43,15,32.92865,-117.41199,0.6,256.30,7.58,4.86,10.89,9.24,18.40,,76.20,,,14.15,29.87,29.87,1011.54,47.41,681.43,19.30,0.0374,,,,2730.00,0.0000,0.5630,0.00,0.00,0.00,2.04,10,1593650384,15.26,1593649895,32.92865,-117.41199,2,12,1.81,0.14,6.3,4.6,6870,336.8,1593650595,32.92365,-117.44557
2.1,CalCOFI Line 90 (Magnus),deployed,Wave Glider,--,1593651377,2020,07,02,00,56,17,32.93141,-117.41203,0.5,257.67,6.69,3.50,9.72,8.15,18.40,,75.60,,,14.03,29.86,29.86,1011.20,56.66,691.26,19.30,0.0374,,,,2730.00,0.0000,0.5630,0.00,0.00,0.00,2.04,10,1593651160,15.26,1593650670,32.93141,-117.41203,2,9,1.66,0.17,6.3,5.6,6820,338.0,1593651377,32.91527,-117.38788
2.1,CalCOFI Line 90 (Magnus),deployed,Wave Glider,--,1593652145,2020,07,02,01,09,05,32.93411,-117.41195,0.8,254.07,6.42,3.69,9.14,7.82,18.50,,75.40,,,14.08,29.86,29.86,1011.20,56.66,703.66,19.30,0.0374,,,,2730.00,0.0000,0.5630,0.00,0.00,0.00,2.04,10,1593651935,15.26,1593651444,32.93411,-117.41195,2,12,1.65,0.15,8.0,4.7,6750,340.2,1593652145,32.94556,-117.38788
2.1,CalCOFI Line 90 (Magnus),deployed,Wave Glider,--,1593652984,2020,07,02,01,23,04,32.93647,-117.41196,1.2,260.62,6.03,3.50,8.75,7.35,18.50,,76.40,,,14.29,29.86,29.86,1011.20,56.66,706.38,19.30,0.0374,,,,2730.00,0.0000,0.5630,0.00,0.00,0.00,2.04,10,1593652710,15.26,1593652219,32.93647,-117.41196,2,11,1.65,0.11,6.0,4.1,6642,341.4,1593652984,32.92485,-117.25418
2.1,CalCOFI Line 90 (Magnus),deployed,Wave Glider,--,1593653754,2020,07,02,01,35,54,32.93903,-117.41208,0.4,255.99,5.37,2.53,7.97,6.54,18.50,,76.30,,,14.27,29.86,29.86,1011.20,56.66,706.11,19.30,0.0374,,,,2730.00,0.0000,0.5630,0.00,0.00,0.00,2.04,10,1593653483,15.26,1593653055,32.93903,-117.41208,2,11,1.63,0.09,7.4,4.4,6747,344.5,1593653754,32.95394,-117.44557
2.1,CalCOFI Line 90 (Magnus),deployed,Wave Glider,--,1593654532,2020,07,02,01,48,52,32.94131,-117.41211,-0.2,247.07,5.19,2.72,8.16,6.33,18.50,,74.40,,,13.88,29.86,29.86,1011.20,56.66,700.93,19.30,0.0374,,,,2740.00,0.0000,0.5630,0.00,0.00,0.00,2.04,10,1593654320,15.26,1593653830,32.94131,-117.41211,2,11,1.45,0.14,5.3,4.5,6523,343.9,1593654532,32.94556,-117.38788
2.1,CalCOFI Line 90 (Magnus),deployed,Wave Glider,--,1593655309,2020,07,02,02,01,49,32.94360,-117.41205,4.8,249.97,4.69,1.75,7.39,5.71,18.50,,75.80,,,14.17,29.86,29.86,1011.20,56.66,704.75,19.30,0.0374,,,,2740.00,0.0000,0.5630,0.00,0.00,0.00,2.04,10,1593655095,15.26,1593654605,32.94360,-117.41205,2,9,1.42,0.15,5.8,4.2,6726,341.1,1593655309,32.91527,-117.38788
2.1,CalCOFI Line 90 (Magnus),deployed,Wave Glider,--,1593656079,2020,07,02,02,14,39,32.94596,-117.41211,-1.4,243.21,4.16,1.75,7.19,5.07,18.50,,76.10,,,14.23,29.86,29.86,1011.20,56.66,705.57,19.20,0.0374,,,,2740.00,0.0000,0.5630,0.00,0.00,0.00,2.04,10,1593655870,15.26,1593655380,32.94596,-117.41211,2,10,1.48,0.11,5.4,3.9,6769,341.5,1593656079,32.96299,-117.40758
2.1,CalCOFI Line 90 (Magnus),deployed,Wave Glider,--,1593656921,2020,07,02,02,28,41,32.94820,-117.41198,2.5,240.75,4.30,1.17,6.42,5.24,18.50,,76.80,,,14.37,29.87,29.87,1011.54,47.41,696.02,19.10,0.0374,,,,2740.00,0.0000,0.5630,0.00,0.00,0.00,2.04,10,1593656644,15.26,1593656155,32.94820,-117.41198,2,10,1.40,0.12,4.9,3.9,6462,340.3,1593656921,32.99326,-117.40758
2.1,CalCOFI Line 90 (Magnus),deployed,Wave Glider,--,1593657697,2020,07,02,02,41,37,32.95066,-117.41208,-0.6,233.25,3.89,1.36,6.80,4.74,18.40,,76.00,,,14.11,29.87,29.87,1011.54,47.41,680.89,19.00,0.0374,,,,2740.00,0.0000,0.5630,0.00,0.00,0.00,2.04,10,1593657420,15.26,1593656990,32.95066,-117.41208,2,11,1.34,0.11,5.5,3.4,6825,341.4,1593657697,32.94556,-117.38788
2.1,CalCOFI Line 90 (Magnus),deployed,Wave Glider,--,1593658523,2020,07,02,02,55,23,32.95277,-117.41198,-2.6,244.45,3.67,0.58,6.42,4.48,18.30,,75.80,,,13.97,29.87,29.87,1011.54,47.41,667.40,18.80,0.0374,,,,2740.00,0.0000,0.5630,0.00,0.00,0.00,2.04,10,1593658255,15.26,1593657765,32.95277,-117.41198,2,11,1.27,0.08,4.6,3.8,6591,318.6,1593658523,32.96299,-117.40758
2.1,CalCOFI Line 90 (Magnus),deployed,Wave Glider,--,1593659300,2020,07,02,03,08,20,32.95367,-117.41454,-2.6,232.54,4.37,1.36,6.61,5.33,18.20,,75.80,,,13.88,29.87,29.87,1011.54,47.41,654.45,18.70,0.0374,,,,2740.00,0.0000,0.5630,0.00,0.00,0.00,2.04,10,1593659029,15.26,1593658599,32.95367,-117.41454,2,11,1.07,0.08,4.5,3.9,3843,272.3,1593659300,32.90625,-117.42586
2.1,CalCOFI Line 90 (Magnus),deployed,Wave Glider,--,1593660083,2020,07,02,03,21,23,32.95201,-117.41706,-3.4,217.28,4.70,2.33,7.19,5.74,18.20,,76.80,,,14.08,29.87,29.87,1011.54,47.41,657.12,18.60,0.0374,,,,2740.00,0.0000,0.5630,0.00,0.00,0.00,2.04,10,1593659865,15.26,1593659374,32.95201,-117.41706,2,12,0.41,0.14,4.1,4.0,3527,172.4,1593660083,32.95458,-117.34988
2.1,CalCOFI Line 90 (Magnus),deployed,Wave Glider,--,1593660854,2020,07,02,03,34,14,32.94787,-117.41716,-0.8,230.49,4.32,1.56,7.97,5.26,18.10,,77.80,,,14.18,29.88,29.88,1011.88,38.15,635.37,18.50,0.0374,,,,2740.00,0.0000,0.5630,0.00,0.00,0.00,2.04,10,1593660640,15.26,1593660149,32.94787,-117.41716,2,11,0.59,0.14,4.2,3.5,3851,174.0,1593660854,32.92576,-117.06276
2.1,CalCOFI Line 90 (Magnus),deployed,Wave Glider,--,1593661751,2020,07,02,03,49,11,32.94372,-117.41706,0.0,211.49,3.29,0.19,7.19,4.01,18.10,,75.60,,,13.74,29.88,29.88,1011.88,38.15,629.52,18.40,0.0374,,,,2740.00,0.0000,0.5630,0.00,0.00,0.00,2.04,10,1593661415,15.26,1593660924,32.94372,-117.41706,2,11,0.69,0.10,5.0,3.3,3514,174.2,1593661751,32.96299,-117.40758
2.1,CalCOFI Line 90 (Magnus),deployed,Wave Glider,--,1593662518,2020,07,02,04,01,58,32.93919,-117.41711,1.7,206.85,3.62,0.78,6.22,4.41,18.10,,77.50,,,14.12,29.88,29.88,1011.88,38.15,634.57,18.40,0.0374,,,,2740.00,0.0000,0.5630,0.00,0.00,0.00,2.04,10,1593662190,15.26,1593661819,32.93919,-117.41711,2,11,0.64,0.11,4.0,3.0,3785,170.3,1593662518,32.91527,-117.38788
2.1,CalCOFI Line 90 (Magnus),deployed,Wave Glider,--,1593663301,2020,07,02,04,15,01,32.93516,-117.41714,3.6,228.11,3.42,0.39,5.83,4.17,18.10,,77.70,,,14.16,29.89,29.89,1012.22,28.90,623.65,18.30,0.0374,,,,2740.00,0.0000,0.5630,0.00,0.00,0.00,2.04,10,1593663083,15.26,1593662594,32.93516,-117.41714,2,12,0.54,0.12,4.8,4.1,3619,164.3,1593663301,32.90625,-117.42586
2.1,CalCOFI Line 90 (Magnus),deployed,Wave Glider,--,1593664076,2020,07,02,04,27,56,32.93129,-117.41719,4.4,199.96,4.08,1.36,7.39,4.98,18.10,,77.00,,,14.02,29.89,29.89,1012.22,28.90,621.79,18.30,0.0374,,,,2740.00,0.0000,0.5630,0.00,0.00,0.00,2.04,10,1593663859,15.26,1593663369,32.93129,-117.41719,2,11,0.66,0.11,4.5,3.9,3635,162.8,1593664076,32.91527,-117.38788
2.1,CalCOFI Line 90 (Magnus),deployed,Wave Glider,--,1593664843,2020,07,02,04,40,43,32.92737,-117.41709,5.3,214.93,3.73,0.97,6.61,4.55,18.00,,76.10,,,13.74,29.89,29.89,1012.22,28.90,606.45,18.30,0.0374,,,,2740.00,0.0000,0.5630,0.00,0.00,0.00,2.04,10,1593664634,15.26,1593664144,32.92737,-117.41709,2,12,0.57,0.09,4.3,3.5,3507,165.3,1593664843,32.91527,-117.38788
2.1,CalCOFI Line 90 (Magnus),deployed,Wave Glider,--,1593665624,2020,07,02,04,53,44,32.92323,-117.41716,6.0,221.11,4.26,1.75,7.19,5.19,18.10,,76.80,,,13.98,29.90,29.90,1012.56,19.64,609.81,18.40,0.0374,,,,2740.00,0.0000,0.5630,0.00,0.00,0.00,2.04,10,1593665409,15.26,1593664919,32.92323,-117.41716,2,9,0.64,0.11,4.5,3.2,3491,160.1,1593665624,32.90625,-117.42586
2.1,CalCOFI Line 90 (Magnus),deployed,Wave Glider,--,1593666400,2020,07,02,05,06,40,32.91906,-117.41711,6.0,218.95,4.53,2.14,7.78,5.52,18.10,,78.00,,,14.22,29.91,29.91,1012.89,10.40,601.56,18.40,0.0374,,,,2740.00,0.0000,0.5630,0.00,0.00,0.00,2.04,10,1593666184,15.26,1593665694,32.91906,-117.41711,2,12,0.52,0.11,4.8,4.2,3550,157.3,1593666400,32.91527,-117.38788
2.1,CalCOFI Line 90 (Magnus),deployed,Wave Glider,--,1593667177,2020,07,02,05,19,37,32.91504,-117.41706,6.4,209.31,4.86,1.17,7.78,5.93,18.00,,76.10,,,13.74,29.91,29.91,1012.89,10.40,583.56,18.40,0.0374,,,,2740.00,0.0000,0.5630,0.00,0.00,0.00,2.04,10,1593666959,15.26,1593666469,32.91504,-117.41706,2,10,0.56,0.08,4.0,4.1,4445,160.3,1593667177,32.91527,-117.38788
2.1,CalCOFI Line 90 (Magnus),deployed,Wave Glider,--,1593667947,2020,07,02,05,32,27,32.91210,-117.41629,6.0,158.45,3.69,0.97,7.00,4.50,18.00,,77.50,,,14.02,29.91,29.91,1012.89,10.40,587.25,18.30,0.0374,,,,2740.00,0.0000,0.5630,0.00,0.00,0.00,2.04,10,1593667733,15.26,1593667244,32.91210,-117.41629,2,10,0.87,0.07,4.1,3.7,5397,29.6,1593667947,32.87712,-117.23459
2.1,CalCOFI Line 90 (Magnus),deployed,Wave Glider,--,1593668717,2020,07,02,05,45,17,32.91211,-117.41348,6.5,157.58,1.56,0.19,4.28,1.90,18.00,,76.90,,,13.90,29.91,29.91,1012.89,10.40,585.67,18.30,0.0374,,,,2740.00,0.0000,0.5630,0.00,0.00,0.00,2.04,10,1593668508,15.26,1593668014,32.91211,-117.41348,2,10,1.06,0.07,4.5,4.4,6607,13.2,1593668717,32.91527,-117.38788
2.1,CalCOFI Line 90 (Magnus),deployed,Wave Glider,--,1593669495,2020,07,02,05,58,15,32.91302,-117.41201,5.8,165.20,4.43,0.00,7.78,5.40,18.00,,76.40,,,13.80,29.91,29.91,1012.89,10.40,584.35,18.40,0.0374,,,,2740.00,0.0000,0.5630,0.00,0.00,0.00,2.04,10,1593669280,15.26,1593668787,32.91302,-117.41201,2,10,1.16,0.10,5.1,3.3,6634,348.3,1593669495,32.95394,-117.44557
2.1,CalCOFI Line 90 (Magnus),deployed,Wave Glider,--,1593670269,2020,07,02,06,11,09,32.91479,-117.41209,5.8,176.63,3.09,0.19,6.22,3.77,17.90,,76.50,,,13.73,29.91,29.91,1012.89,10.40,571.66,18.30,0.0374,,,,2740.00,0.0000,0.5630,0.00,0.00,0.00,2.04,10,1593670052,15.26,1593669562,32.91479,-117.41209,2,10,1.17,0.08,3.6,3.7,6393,347.9,1593670269,32.90625,-117.42586
2.1,CalCOFI Line 90 (Magnus),deployed,Wave Glider,--,1593671042,2020,07,02,06,24,02,32.91669,-117.41199,2.9,212.44,2.26,0.19,5.83,2.75,18.00,,76.60,,,13.84,29.91,29.91,1012.89,10.40,584.88,18.30,0.0374,,,,2740.00,0.0000,0.5630,0.00,0.00,0.00,2.04,10,1593670827,15.26,1593670337,32.91669,-117.41199,2,9,1.15,0.09,4.4,3.1,6440,346.8,1593671042,32.90625,-117.42586
2.1,CalCOFI Line 90 (Magnus),deployed,Wave Glider,--,1593671818,2020,07,02,06,36,58,32.91842,-117.41203,3.2,175.31,5.29,2.72,8.55,6.45,18.00,,78.20,,,14.16,29.91,29.91,1012.89,10.40,589.10,18.40,0.0374,,,,2740.00,0.0000,0.5630,0.00,0.00,0.00,2.04,10,1593671602,15.26,1593671113,32.91842,-117.41203,2,10,1.20,0.08,4.1,3.6,6502,349.7,1593671818,32.91527,-117.38788
2.1,CalCOFI Line 90 (Magnus),deployed,Wave Glider,--,1593672595,2020,07,02,06,49,55,32.92014,-117.41209,1.3,159.28,4.96,2.33,9.14,6.04,18.00,,77.50,,,14.02,29.91,29.91,1012.89,10.40,587.25,18.30,0.0374,,,,2740.00,0.0000,0.5630,0.00,0.00,0.00,2.04,10,1593672378,15.26,1593671888,32.92014,-117.41209,2,10,1.17,0.09,4.1,3.2,6561,348.9,1593672595,32.91527,-117.38788
2.1,CalCOFI Line 90 (Magnus),deployed,Wave Glider,--,1593673362,2020,07,02,07,02,42,32.92193,-117.41205,0.6,94.64,2.82,0.19,5.64,3.44,17.80,,78.50,,,14.03,29.92,29.92,1013.23,1.15,552.48,18.20,0.0374,,,,2740.00,0.0000,0.5630,0.00,0.00,0.00,2.04,10,1593673153,15.26,1593672663,32.92193,-117.41205,2,11,1.03,0.09,3.7,3.5,6488,347.9,1593673362,32.91527,-117.38788
2.1,CalCOFI Line 90 (Magnus),deployed,Wave Glider,--,1593674145,2020,07,02,07,15,45,32.92351,-117.41206,0.9,67.81,1.44,0.19,4.47,1.75,17.80,,76.70,,,13.67,29.92,29.92,1013.23,1.15,547.78,18.20,0.0374,,,,2740.00,0.0000,0.5630,0.00,0.00,0.00,2.04,10,1593673928,15.26,1593673438,32.92351,-117.41206,2,9,1.05,0.09,3.6,3.5,6265,350.0,1593674145,32.91527,-117.38788
2.1,CalCOFI Line 90 (Magnus),deployed,Wave Glider,--,1593674911,2020,07,02,07,28,31,32.92498,-117.41208,-0.8,140.45,2.88,0.19,7.97,3.51,18.00,,78.50,,,14.22,29.92,29.92,1013.23,1.15,578.45,18.30,0.0374,,,,2740.00,0.0000,0.5630,1593674112.00,0.00,0.00,2.04,10,1593674703,15.26,1593674213,32.92498,-117.41208,2,9,0.98,0.08,3.2,3.6,6504,351.3,1593674911,32.94556,-117.38788
2.1,CalCOFI Line 90 (Magnus),deployed,Wave Glider,--,1593675695,2020,07,02,07,41,35,32.92646,-117.41198,-2.8,176.40,4.02,0.19,9.72,4.91,17.80,,77.20,,,13.77,29.91,29.91,1012.89,10.40,560.53,18.30,0.0374,,,,2740.00,0.0000,0.5630,0.00,0.00,0.00,2.04,10,1593675478,15.26,1593674987,32.92646,-117.41198,2,11,1.11,0.10,3.2,3.7,6400,350.1,1593675695,32.91527,-117.38788
2.1,CalCOFI Line 90 (Magnus),deployed,Wave Glider,--,1593676461,2020,07,02,07,54,21,32.92813,-117.41205,0.2,79.25,1.87,0.19,4.67,2.28,17.90,,77.20,,,13.87,29.91,29.91,1012.89,10.40,573.50,18.20,0.0374,,,,2740.00,0.0000,0.5630,0.00,0.00,0.00,2.04,10,1593676253,15.26,1593675762,32.92813,-117.41205,2,11,1.06,0.08,3.3,3.1,6471,350.8,1593676461,32.91461,-117.48354
2.1,CalCOFI Line 90 (Magnus),deployed,Wave Glider,--,1593677235,2020,07,02,08,07,15,32.92967,-117.41211,-0.8,155.63,4.57,1.17,7.78,5.57,18.00,,78.20,,,14.16,29.91,29.91,1012.89,10.40,589.10,18.30,0.0374,,,,2740.00,0.0000,0.5630,0.00,0.00,0.00,2.04,10,1593677027,15.26,1593676537,32.92967,-117.41211,2,11,0.98,0.08,3.2,3.3,6216,354.6,1593677235,32.91527,-117.38788
2.1,CalCOFI Line 90 (Magnus),deployed,Wave Glider,--,1593678076,2020,07,02,08,21,16,32.93098,-117.41206,-1.2,172.50,2.94,0.39,6.22,3.58,17.90,,78.10,,,14.05,29.91,29.91,1012.89,10.40,575.86,18.30,0.0374,,,,2740.00,0.0000,0.5630,0.00,0.00,0.00,2.04,10,1593677803,15.26,1593677311,32.93098,-117.41206,2,10,1.07,0.10,3.3,4.7,6454,353.9,1593678076,32.96299,-117.40758
2.1,CalCOFI Line 90 (Magnus),deployed,Wave Glider,--,1593678842,2020,07,02,08,34,02,32.93258,-117.41222,-4.4,84.17,1.87,0.00,4.47,2.28,17.80,,77.60,,,13.85,29.91,29.91,1012.89,10.40,561.57,18.20,0.0374,,,,2740.00,0.0000,0.5630,0.00,0.00,0.00,2.04,10,1593678576,15.26,1593678146,32.93258,-117.41222,2,8,1.01,0.09,3.5,4.6,6260,0.1,1593678842,32.94556,-117.38788
2.1,CalCOFI Line 90 (Magnus),deployed,Wave Glider,--,1593679620,2020,07,02,08,47,00,32.93387,-117.41206,-1.0,164.27,4.06,1.75,6.80,4.95,18.00,,79.00,,,14.32,29.91,29.91,1012.89,10.40,591.21,18.30,0.0374,,,,2740.00,0.0000,0.5630,0.00,0.00,0.00,2.04,10,1593679411,15.26,1593678918,32.93387,-117.41206,2,9,1.01,0.09,3.8,3.1,6192,356.9,1593679620,32.95458,-117.34988
2.1,CalCOFI Line 90 (Magnus),deployed,Wave Glider,--,1593680398,2020,07,02,08,59,58,32.93538,-117.41216,2.1,114.26,4.43,1.56,8.36,5.40,18.00,,79.00,,,14.32,29.91,29.91,1012.89,10.40,591.21,18.30,0.0374,,,,2740.00,0.0000,0.5630,0.00,0.00,0.00,2.04,10,1593680183,15.26,1593679692,32.93538,-117.41216,2,9,0.81,0.10,3.7,3.9,1,357.9,1593680398,32.95458,-117.34988
2.1,CalCOFI Line 90 (Magnus),deployed,Wave Glider,--,1593681162,2020,07,02,09,12,42,32.93684,-117.41209,3.6,68.14,1.91,0.00,5.64,2.32,17.90,,78.40,,,14.10,29.90,29.90,1012.56,19.64,588.09,18.20,0.0374,,,,2740.00,0.0000,0.5630,0.00,0.00,0.00,2.04,10,1593680956,15.26,1593680465,32.93684,-117.41209,2,11,1.00,0.08,3.5,3.7,5990,357.4,1593681162,32.94556,-117.38788
2.1,CalCOFI Line 90 (Magnus),deployed,Wave Glider,--,1593682005,2020,07,02,09,26,45,32.93832,-117.41205,2.1,179.32,3.01,0.00,7.58,3.67,17.90,,77.40,,,13.91,29.90,29.90,1012.56,19.64,585.47,18.30,0.0374,,,,2740.00,0.0000,0.5630,0.00,0.00,0.00,2.04,10,1593681730,15.26,1593681238,32.93832,-117.41205,2,11,0.98,0.09,3.5,3.7,6246,356.0,1593682005,32.91527,-117.38788
2.1,CalCOFI Line 90 (Magnus),deployed,Wave Glider,--,1593682779,2020,07,02,09,39,39,32.94005,-117.41206,4.8,193.91,2.55,0.39,5.83,3.10,17.90,,77.30,,,13.89,29.90,29.90,1012.56,19.64,585.20,18.30,0.0374,,,,2740.00,0.0000,0.5630,0.00,0.00,0.00,2.04,10,1593682503,15.26,1593682073,32.94005,-117.41206,2,10,1.06,0.08,4.0,4.0,6306,356.5,1593682779,32.96299,-117.40758
2.1,CalCOFI Line 90 (Magnus),deployed,Wave Glider,--,1593683550,2020,07,02,09,52,30,32.94171,-117.41217,1.0,137.22,3.93,1.56,7.00,4.79,18.10,,79.20,,,14.46,29.90,29.90,1012.56,19.64,616.19,18.40,0.0374,,,,2740.00,0.0000,0.5630,0.00,0.00,0.00,2.04,10,1593683338,15.26,1593682847,32.94171,-117.41217,2,10,0.93,0.09,3.2,3.6,6103,359.5,1593683550,32.95394,-117.44557
2.1,CalCOFI Line 90 (Magnus),deployed,Wave Glider,--,1593684322,2020,07,02,10,05,22,32.94338,-117.41206,1.7,138.01,4.51,1.56,7.78,5.50,18.00,,79.50,,,14.42,29.90,29.90,1012.56,19.64,603.98,18.40,0.0374,,,,2740.00,0.0000,0.5630,0.00,0.00,0.00,2.04,10,1593684112,15.26,1593683620,32.94338,-117.41206,2,8,0.89,0.10,3.9,3.6,6333,357.9,1593684322,32.95458,-117.34988
