attachment_version,description,status,platform,moored,timestamp,year,month,day,hour,minute,second,latitude,longitude,gps_altitude,vector_averaged_wind_direction,vector_averaged_wind_speed,minimum_wind_speed_over_averaging_period,maximum_wind_speed_over_averaging_period,wind_speed_at_10m,air_temperature,water_temperature,relative_humidity,wind_chill,heat_index,dew_frost_point,barometric_pressure,altimeter_setting,sea_level_pressure,pressure_altitude,density_altitude,wxt520_internal_temperature,rain_accumulation,three_hour_rain_accumulation,six_hour_rain_accumulation,twenty_four_hour_rain_accumulation,rain_duration,rain_intensity,rain_peak_intensity,hail_accumulation,hail_duration,hail_intensity,firmware_version,reporting_interval,cf2_epoch,system_voltage_measured_at_cf2,gps_epoch,gps_latitude,gps_longitude,gps_fix_quality_indicator,number_of_satellites_used_for_gps,pitch,roll,pitch_maximum,roll_maximum,compass_relative_magnitude,average_compass_heading,sbd_timestamp,sbd_latitude,sbd_longitude
2.1,CalCOFI Line 90 (SV3-253),deployed,Wave Glider,--,1590168060,2020,05,22,17,21,00,32.87178,-117.26146,-3.0,222.68,12.05,8.16,15.75,14.69,17.40,,75.10,,,12.96,29.91,29.91,,10.40,503.35,18.10,0.0063,,,,590.00,0.0000,0.0984,0.00,0.00,0.00,2.04,10,1590167850,13.42,1590167361,32.87178,-117.26146,2,9,-0.46,1.13,4.6,6.5,4439,231.2,1590168060,32.86815,-117.27261
2.1,CalCOFI Line 90 (SV3-253),deployed,Wave Glider,--,1590168822,2020,05,22,17,33,42,32.87007,-117.26193,3.8,227.46,11.37,7.19,15.75,13.86,17.40,,75.30,,,13.00,29.91,29.91,,10.40,503.86,18.10,0.0063,,,,590.00,0.0000,0.0984,0.00,0.00,0.00,2.04,10,1590168615,13.44,1590168126,32.87007,-117.26193,2,9,0.16,1.06,6.0,7.5,4901,334.4,1590168822,32.87712,-117.23459
2.1,CalCOFI Line 90 (SV3-253),deployed,Wave Glider,--,1590169582,2020,05,22,17,46,22,32.87248,-117.26353,3.2,230.35,11.28,7.00,15.16,13.75,17.40,,74.00,,,12.73,29.91,29.91,,10.40,500.55,18.10,0.0063,,,,600.00,0.0000,0.0984,0.00,0.00,0.00,2.04,10,1590169379,13.44,1590168890,32.87248,-117.26353,2,10,0.46,1.06,5.7,8.0,4719,293.3,1590169582,32.90742,-117.23459
2.1,CalCOFI Line 90 (SV3-253),deployed,Wave Glider,--,1590170412,2020,05,22,18,00,12,32.87468,-117.26838,3.9,232.47,10.73,6.80,14.58,13.08,17.40,,72.80,,,12.48,29.91,29.91,,10.40,497.50,18.10,0.0063,,,,610.00,0.0000,0.0984,0.00,0.00,0.00,2.04,10,1590170143,13.46,1590169655,32.87468,-117.26838,2,10,0.43,1.08,6.1,7.1,4819,291.1,1590170412,32.89844,-117.27261
2.1,CalCOFI Line 90 (SV3-253),deployed,Wave Glider,--,1590171187,2020,05,22,18,13,07,32.87704,-117.27371,2.9,232.47,10.61,6.61,14.19,12.94,17.40,,73.60,,,12.65,29.92,29.92,,1.15,488.09,18.10,0.0063,,,,630.00,0.0000,0.0984,0.00,0.00,0.00,2.04,10,1590170908,13.42,1590170480,32.87704,-117.27371,2,10,0.28,1.03,5.6,6.4,4723,288.4,1590171187,32.86815,-117.27261
2.1,CalCOFI Line 90 (SV3-253),deployed,Wave Glider,--,1590171941,2020,05,22,18,25,41,32.87927,-117.27866,8.7,235.92,10.44,6.61,14.77,12.73,17.30,,76.30,,,13.11,29.92,29.92,,1.15,482.01,18.00,0.0063,,,,630.00,0.0000,0.0984,0.00,0.00,0.00,2.04,10,1590171733,13.43,1590171245,32.87927,-117.27866,2,9,0.25,1.02,5.4,6.4,4801,290.7,1590171941,32.86815,-117.27261
2.1,CalCOFI Line 90 (SV3-253),deployed,Wave Glider,--,1590172718,2020,05,22,18,38,38,32.88149,-117.28363,4.6,231.20,9.41,5.83,12.83,11.47,17.30,,73.70,,,12.58,29.92,29.92,,1.15,475.44,18.00,0.0063,,,,630.00,0.0000,0.0984,0.00,0.00,0.00,2.04,10,1590172498,13.46,1590172010,32.88149,-117.28363,2,10,0.28,1.09,7.4,6.5,4776,290.2,1590172718,32.90742,-117.23459
2.1,CalCOFI Line 90 (SV3-253),deployed,Wave Glider,--,1590173483,2020,05,22,18,51,23,32.88374,-117.28856,-2.3,231.57,9.66,6.03,13.41,11.78,17.20,,75.60,,,12.87,29.92,29.92,,1.15,467.31,18.00,0.0063,,,,640.00,0.0000,0.0984,0.00,0.00,0.00,2.04,10,1590173263,13.45,1590172775,32.88374,-117.28856,2,9,0.23,0.98,4.7,6.4,4791,291.3,1590173483,32.86815,-117.27261
2.1,CalCOFI Line 90 (SV3-253),deployed,Wave Glider,--,1590174236,2020,05,22,19,03,56,32.88592,-117.29347,-2.0,234.89,9.95,6.22,13.41,12.13,17.10,,74.70,,,12.59,29.92,29.92,,1.15,452.14,17.90,0.0067,,,,640.00,0.0000,0.0984,0.00,0.00,0.00,2.04,10,1590174028,13.48,1590173540,32.88592,-117.29347,2,10,0.24,1.06,5.1,7.3,4738,286.3,1590174236,32.90687,-117.33022
2.1,CalCOFI Line 90 (SV3-253),deployed,Wave Glider,--,1590175013,2020,05,22,19,16,53,32.88800,-117.29813,-1.6,232.11,10.61,7.00,15.16,12.94,17.00,,74.60,,,12.47,29.92,29.92,,1.15,438.98,17.80,0.0067,,,,660.00,0.0000,0.0984,0.00,0.00,0.00,2.04,10,1590174793,13.47,1590174304,32.88800,-117.29813,2,10,0.20,1.02,4.8,6.9,4727,284.3,1590175013,32.86815,-117.27261
2.1,CalCOFI Line 90 (SV3-253),deployed,Wave Glider,--,1590175758,2020,05,22,19,29,18,32.89031,-117.30205,-3.7,234.78,9.10,5.25,13.41,11.09,17.00,,74.80,,,12.51,29.91,29.91,,10.40,450.92,17.70,0.0067,,,,660.00,0.0000,0.0984,0.00,0.00,0.00,2.04,10,1590175558,13.43,1590175069,32.89031,-117.30205,2,10,0.41,1.07,5.4,5.6,5426,344.6,1590175758,32.89844,-117.27261
2.1,CalCOFI Line 90 (SV3-253),deployed,Wave Glider,--,1590176532,2020,05,22,19,42,12,32.89621,-117.30205,-6.3,228.75,9.89,5.44,13.80,12.06,16.90,,74.10,,,12.27,29.92,29.92,,1.15,424.84,17.70,0.0067,,,,660.00,0.0000,0.0984,0.00,0.00,0.00,2.04,10,1590176323,13.48,1590175834,32.89621,-117.30205,2,9,-0.01,1.01,4.3,6.7,4642,296.3,1590176532,32.90687,-117.33022
2.1,CalCOFI Line 90 (SV3-253),deployed,Wave Glider,--,1590177294,2020,05,22,19,54,54,32.89812,-117.30511,-7.8,233.60,10.34,6.61,14.19,12.61,16.80,,72.40,,,11.82,29.92,29.92,,1.15,407.77,17.60,0.0067,,,,660.00,0.0000,0.0984,0.00,0.00,0.00,2.04,10,1590177089,13.44,1590176599,32.89812,-117.30511,2,8,-0.15,1.05,4.8,6.9,4636,262.1,1590177294,32.88556,-117.29221
2.1,CalCOFI Line 90 (SV3-253),deployed,Wave Glider,--,1590178062,2020,05,22,20,07,42,32.89814,-117.30916,-10.3,231.14,9.62,5.83,13.22,11.73,16.80,,74.40,,,12.24,29.91,29.91,,10.40,424.12,17.60,0.0067,,,,660.00,0.0000,0.0984,0.00,0.00,0.00,2.04,10,1590177853,13.47,1590177364,32.89814,-117.30916,2,7,-0.15,1.07,5.0,8.6,4514,260.5,1590178062,32.91587,-117.29221
2.1,CalCOFI Line 90 (SV3-253),deployed,Wave Glider,--,1590178826,2020,05,22,20,20,26,32.89735,-117.31203,-3.0,225.27,9.60,5.83,13.41,11.71,16.90,,75.40,,,12.54,29.91,29.91,,10.40,439.49,17.70,0.0067,,,,670.00,0.0000,0.0984,0.00,0.00,0.00,2.04,10,1590178618,13.40,1590178129,32.89735,-117.31203,2,8,-0.89,1.10,3.8,6.0,4448,207.4,1590178826,32.91587,-117.29221
2.1,CalCOFI Line 90 (SV3-253),deployed,Wave Glider,--,1590179589,2020,05,22,20,33,09,32.89405,-117.31204,-1.1,221.61,9.47,6.22,13.61,11.54,16.90,,75.60,,,12.58,29.91,29.91,,10.40,439.98,17.60,0.0067,,,,670.00,0.0000,0.0984,0.00,0.00,0.00,2.04,10,1590179383,13.44,1590178894,32.89405,-117.31204,2,9,-0.77,1.08,5.2,7.2,4489,209.3,1590179589,32.91587,-117.29221
2.1,CalCOFI Line 90 (SV3-253),deployed,Wave Glider,--,1590180353,2020,05,22,20,45,53,32.89063,-117.31206,-0.9,201.93,8.13,3.89,11.47,9.91,16.90,,74.80,,,12.42,29.91,29.91,,10.40,438.01,17.60,0.0067,,,,670.00,0.0000,0.0984,0.00,0.00,0.00,2.04,10,1590180147,13.43,1590179659,32.89063,-117.31206,2,9,-1.02,0.97,4.8,7.1,4900,113.3,1590180353,32.87657,-117.33022
2.1,CalCOFI Line 90 (SV3-253),deployed,Wave Glider,--,1590181115,2020,05,22,20,58,35,32.88966,-117.30666,-0.7,201.44,7.66,4.47,11.28,9.34,17.00,,73.70,,,12.29,29.91,29.91,,10.40,448.19,17.80,0.0067,,,,670.00,0.0000,0.0984,0.00,0.00,0.00,2.04,10,1590180912,13.48,1590180422,32.88966,-117.30666,2,10,-0.90,1.01,4.2,6.7,5322,81.8,1590181115,32.91587,-117.29221
2.1,CalCOFI Line 90 (SV3-253),deployed,Wave Glider,--,1590181872,2020,05,22,21,11,12,32.89135,-117.30199,3.0,236.99,7.89,4.28,11.47,9.62,17.00,,74.80,,,12.51,29.91,29.91,,10.40,450.92,17.80,0.0067,,,,670.00,0.0000,0.0984,0.00,0.00,0.00,2.04,10,1590181676,13.47,1590181184,32.89135,-117.30199,2,9,0.20,1.09,4.0,5.7,5500,344.4,1590181872,32.86757,-117.36821
2.1,CalCOFI Line 90 (SV3-253),deployed,Wave Glider,--,1590182641,2020,05,22,21,24,01,32.89697,-117.30204,4.0,232.27,8.59,4.08,11.66,10.48,17.10,,74.60,,,12.57,29.91,29.91,,10.40,463.34,17.90,0.0067,,,,670.00,0.0000,0.0984,0.00,0.00,0.00,2.04,10,1590182438,13.44,1590181949,32.89697,-117.30204,2,9,0.06,1.00,5.7,7.8,4656,286.9,1590182641,32.91587,-117.29221
2.1,CalCOFI Line 90 (SV3-253),deployed,Wave Glider,--,1590183411,2020,05,22,21,36,51,32.89811,-117.30542,0.9,226.24,9.72,6.80,12.44,11.85,17.00,,73.70,,,12.29,29.91,29.91,,10.40,448.19,17.80,0.0067,,,,670.00,0.0000,0.0984,0.00,0.00,0.00,2.04,10,1590183203,13.46,1590182714,32.89811,-117.30542,2,9,-0.09,1.07,5.0,7.3,4719,272.1,1590183411,32.94556,-117.38788
2.1,CalCOFI Line 90 (SV3-253),deployed,Wave Glider,--,1590184234,2020,05,22,21,50,34,32.89811,-117.30976,2.4,215.82,9.51,6.22,12.44,11.59,17.00,,75.60,,,12.67,29.90,29.90,,19.64,464.36,17.70,0.0067,,,,670.00,0.0000,0.0984,0.00,0.00,0.00,2.04,10,1590183968,13.37,1590183479,32.89811,-117.30976,2,8,-0.16,1.05,6.3,7.3,4398,253.0,1590184234,32.86815,-117.27261
2.1,CalCOFI Line 90 (SV3-253),deployed,Wave Glider,--,1590185001,2020,05,22,22,03,21,32.89597,-117.31208,1.6,209.00,9.78,5.83,12.83,11.92,17.00,,75.60,,,12.67,29.90,29.90,,19.64,464.36,17.70,0.0067,,,,680.00,0.0000,0.0984,0.00,0.00,0.00,2.04,10,1590184733,13.40,1590184304,32.89597,-117.31208,2,8,-0.82,1.05,3.9,6.1,4477,202.7,1590185001,32.91587,-117.29221
2.1,CalCOFI Line 90 (SV3-253),deployed,Wave Glider,--,1590185756,2020,05,22,22,15,56,32.89176,-117.31204,1.8,201.79,9.31,4.86,12.05,11.35,16.90,,74.70,,,12.39,29.90,29.90,,19.64,449.21,17.60,0.0067,,,,690.00,0.0000,0.0984,0.00,0.00,0.00,2.04,10,1590185558,13.43,1590185068,32.89176,-117.31204,2,8,-0.93,1.05,4.5,7.7,4814,164.1,1590185756,32.90687,-117.33022
2.1,CalCOFI Line 90 (SV3-253),deployed,Wave Glider,--,1590186527,2020,05,22,22,28,47,32.88965,-117.30887,-0.1,195.26,8.13,4.67,11.28,9.91,17.00,,75.10,,,12.57,29.90,29.90,,19.64,463.11,17.70,0.0067,,,,690.00,0.0000,0.0984,0.00,0.00,0.00,2.04,10,1590186321,13.51,1590185832,32.88965,-117.30887,2,9,-1.21,0.91,5.7,9.2,4849,84.8,1590186527,32.91587,-117.29221
2.1,CalCOFI Line 90 (SV3-253),deployed,Wave Glider,--,1590187283,2020,05,22,22,41,23,32.88969,-117.30231,-2.7,217.86,,3.89,11.66,,17.00,,74.30,,,12.41,29.90,29.90,,19.64,461.13,17.80,0.0067,,,,690.00,0.0000,0.0984,0.00,0.00,0.00,2.04,10,1590187086,13.37,1590186594,32.88969,-117.30231,2,9,0.06,1.05,4.9,7.6,5566,354.9,1590187283,32.91587,-117.29221
2.1,CalCOFI Line 90 (SV3-253),deployed,Wave Glider,--,1590188056,2020,05,22,22,54,16,32.89452,-117.30199,-1.3,207.57,7.91,4.08,12.44,9.65,17.00,,75.20,,,12.59,29.90,29.90,,19.64,463.36,17.90,0.0067,,,,690.00,0.0000,0.0984,0.00,0.00,0.00,2.04,10,1590187848,13.44,1590187359,32.89452,-117.30199,2,9,0.19,1.00,4.9,7.8,4696,340.0,1590188056,32.91587,-117.29221
2.1,CalCOFI Line 90 (SV3-253),deployed,Wave Glider,--,1590188818,2020,05,22,23,06,58,32.89810,-117.30378,4.3,213.66,9.55,6.22,12.83,11.64,17.10,,74.30,,,12.51,29.89,29.89,,28.90,485.49,17.80,0.0067,,,,690.00,0.0000,0.0984,0.00,0.00,0.00,2.04,10,1590188613,13.45,1590188124,32.89810,-117.30378,2,10,0.18,1.03,6.1,8.4,4759,279.6,1590188818,32.91756,-116.23973
2.1,CalCOFI Line 90 (SV3-253),deployed,Wave Glider,--,1590189588,2020,05,22,23,19,48,32.89809,-117.30848,-4.4,217.42,9.68,6.42,12.83,11.80,17.10,,73.90,,,12.42,29.89,29.89,,28.90,484.49,17.80,0.0067,,,,690.00,0.0000,0.0984,0.00,0.00,0.00,2.04,10,1590189378,13.40,1590188889,32.89809,-117.30848,2,8,0.04,1.06,5.5,7.2,4511,276.8,1590189588,32.90742,-117.23459
2.1,CalCOFI Line 90 (SV3-253),deployed,Wave Glider,--,1590190404,2020,05,22,23,33,24,32.89705,-117.31204,-5.6,201.62,10.13,6.80,13.80,12.35,17.00,,73.50,,,12.25,29.89,29.89,,28.90,470.60,17.70,0.0067,,,,700.00,0.0000,0.0984,0.00,0.00,0.00,2.04,10,1590190143,13.64,1590189654,32.89705,-117.31204,2,8,-0.97,1.08,6.4,6.7,4435,186.9,1590190404,32.91587,-117.29221
2.1,CalCOFI Line 90 (SV3-253),deployed,Wave Glider,--,1590191169,2020,05,22,23,46,09,32.89237,-117.31204,-2.6,191.25,9.93,5.44,14.58,12.11,17.10,,74.70,,,12.59,29.89,29.89,,28.90,486.49,17.70,0.0067,,,,710.00,0.0000,0.0984,0.00,0.00,0.00,2.04,10,1590190908,13.44,1590190479,32.89237,-117.31204,2,9,-1.10,1.06,5.3,6.7,4827,168.6,1590191169,32.90687,-117.33022
2.1,CalCOFI Line 90 (SV3-253),deployed,Wave Glider,--,1590191936,2020,05,22,23,58,56,32.88963,-117.30959,-8.4,184.98,8.71,5.64,12.25,10.62,17.00,,74.40,,,12.43,29.89,29.89,,28.90,472.83,17.70,0.0067,,,,710.00,0.0000,0.0984,0.00,0.00,0.00,2.04,10,1590191733,13.46,1590191242,32.88963,-117.30959,2,11,-1.32,0.91,4.2,8.1,4943,83.2,1590191936,32.90687,-117.33022
2.1,CalCOFI Line 90 (SV3-253),deployed,Wave Glider,--,1590192698,2020,05,23,00,11,38,32.88965,-117.30361,-10.4,197.33,8.36,5.25,11.66,10.19,17.00,,73.80,,,12.31,29.89,29.89,,28.90,471.34,17.60,0.0067,,,,720.00,0.0000,0.0984,0.00,0.00,0.00,2.04,10,1590192497,13.40,1590192004,32.88965,-117.30361,2,11,-0.36,1.03,5.3,6.3,5492,28.4,1590192698,32.86815,-117.27261
2.1,CalCOFI Line 90 (SV3-253),deployed,Wave Glider,--,1590193463,2020,05,23,00,24,23,32.89343,-117.30204,-5.0,205.22,7.89,4.47,11.47,9.62,17.10,,74.90,,,12.63,29.89,29.89,,28.90,486.99,17.60,0.0067,,,,720.00,0.0000,0.0984,0.00,0.00,0.00,2.04,10,1590193259,13.46,1590192766,32.89343,-117.30204,2,10,0.05,1.03,4.7,7.7,5431,2.3,1590193463,32.91587,-117.29221
2.1,CalCOFI Line 90 (SV3-253),deployed,Wave Glider,--,1590194218,2020,05,23,00,36,58,32.89813,-117.30304,-5.3,215.23,9.06,5.44,12.83,11.04,17.00,,75.10,,,12.57,29.89,29.89,,28.90,474.57,17.50,0.0071,,,,730.00,0.0000,0.0984,0.00,0.00,0.00,2.04,10,1590194021,13.38,1590193529,32.89813,-117.30304,2,10,0.14,1.10,5.7,7.0,4803,279.9,1590194218,32.91587,-117.29221
2.1,CalCOFI Line 90 (SV3-253),deployed,Wave Glider,--,1590194990,2020,05,23,00,49,50,32.89869,-117.30859,-2.2,216.10,8.90,4.28,14.77,10.85,16.80,,75.00,,,12.36,29.88,29.88,,38.15,459.95,17.30,0.0071,,,,730.00,0.0000,0.0984,0.00,0.00,0.00,2.04,10,1590194784,13.44,1590194294,32.89869,-117.30859,2,10,0.22,1.03,6.6,7.2,4774,286.3,1590194990,32.87657,-117.33022
2.1,CalCOFI Line 90 (SV3-253),deployed,Wave Glider,--,1590195755,2020,05,23,01,02,35,32.89970,-117.31445,-4.1,228.74,7.95,4.28,11.66,9.69,16.80,,74.80,,,12.32,29.88,29.88,,38.15,459.46,17.20,0.0075,,,,750.00,0.0000,0.0984,0.00,0.00,0.00,2.04,10,1590195548,13.44,1590195059,32.89970,-117.31445,2,10,0.10,1.03,6.0,7.3,4805,284.5,1590195755,32.93016,-118.95897
2.1,CalCOFI Line 90 (SV3-253),deployed,Wave Glider,--,1590196519,2020,05,23,01,15,19,32.90071,-117.32015,0.5,221.82,9.76,6.22,14.58,11.90,16.80,,75.00,,,12.36,29.88,29.88,,38.15,459.95,17.10,0.0075,,,,760.00,0.0000,0.0984,0.00,0.00,0.00,2.04,10,1590196313,13.46,1590195824,32.90071,-117.32015,2,9,0.18,0.95,6.6,10.0,4859,287.3,1590196519,32.91587,-117.29221
2.1,CalCOFI Line 90 (SV3-253),deployed,Wave Glider,--,1590197286,2020,05,23,01,28,06,32.90178,-117.32612,1.5,214.51,,5.05,12.44,,16.70,,75.70,,,12.40,29.87,29.87,,47.41,460.20,17.00,0.0075,,,,770.00,0.0000,0.0984,0.00,0.00,0.00,2.04,10,1590197078,13.42,1590196589,32.90178,-117.32612,2,10,0.16,0.98,5.8,7.5,4838,286.3,1590197286,32.90687,-117.33022
2.1,CalCOFI Line 90 (SV3-253),deployed,Wave Glider,--,1590198047,2020,05,23,01,40,47,32.90281,-117.33193,2.7,206.03,8.67,3.89,14.19,10.57,16.80,,76.00,,,12.56,29.88,29.88,,38.15,462.40,17.10,0.0075,,,,770.00,0.0000,0.0984,0.00,0.00,0.00,2.04,10,1590197843,13.45,1590197354,32.90281,-117.33193,2,10,0.08,1.04,6.1,6.8,4867,289.9,1590198047,32.90687,-117.33022
2.1,CalCOFI Line 90 (SV3-253),deployed,Wave Glider,--,1590198814,2020,05,23,01,53,34,32.90369,-117.33706,3.0,207.21,7.66,3.69,11.47,9.34,16.80,,75.20,,,12.40,29.88,29.88,,38.15,460.44,17.00,0.0075,,,,770.00,0.0000,0.0984,0.00,0.00,0.00,2.04,10,1590198608,13.43,1590198119,32.90369,-117.33706,2,10,0.17,1.01,6.1,7.4,4851,292.1,1590198814,32.90687,-117.33022
2.1,CalCOFI Line 90 (SV3-253),deployed,Wave Glider,--,1590199577,2020,05,23,02,06,17,32.90458,-117.34232,0.7,214.90,8.15,5.05,12.05,9.93,16.60,,74.60,,,12.08,29.88,29.88,,38.15,433.16,17.00,0.0075,,,,770.00,0.0000,0.0984,0.00,0.00,0.00,2.04,10,1590199373,13.44,1590198884,32.90458,-117.34232,2,9,0.13,1.07,5.1,7.2,4923,297.6,1590199577,32.90687,-117.33022
2.1,CalCOFI Line 90 (SV3-253),deployed,Wave Glider,--,1590200459,2020,05,23,02,20,59,32.90541,-117.34710,3.4,205.60,9.08,4.67,13.02,11.07,16.50,,73.90,,,11.85,29.88,29.88,,38.15,418.57,16.80,0.0079,,,,790.00,0.0000,0.0984,0.00,0.00,0.00,2.04,10,1590200138,13.40,1590199649,32.90541,-117.34710,2,9,0.30,1.00,6.2,7.3,5026,299.5,1590200459,32.90687,-117.33022
2.1,CalCOFI Line 90 (SV3-253),deployed,Wave Glider,--,1590201223,2020,05,23,02,33,43,32.90626,-117.35226,0.9,210.37,7.48,4.67,11.66,9.12,16.60,,75.40,,,12.25,29.88,29.88,,38.15,435.10,16.80,0.0079,,,,790.00,0.0000,0.0984,0.00,0.00,0.00,2.04,10,1590200903,13.44,1590200534,32.90626,-117.35226,2,10,0.17,1.05,6.2,6.3,5113,305.3,1590201223,32.91527,-117.38788
2.1,CalCOFI Line 90 (SV3-253),deployed,Wave Glider,--,1590201988,2020,05,23,02,46,28,32.90700,-117.35662,-2.4,217.15,8.71,4.47,12.64,10.62,16.50,,74.70,,,12.01,29.88,29.88,,38.15,420.50,16.70,0.0083,,,,810.00,0.0000,0.0984,0.00,0.00,0.00,2.04,10,1590201788,13.46,1590201298,32.90700,-117.35662,2,10,0.38,1.15,5.0,7.2,5089,310.7,1590201988,32.87657,-117.33022
2.1,CalCOFI Line 90 (SV3-253),deployed,Wave Glider,--,1590202760,2020,05,23,02,59,20,32.90774,-117.36105,-1.5,211.44,8.92,4.67,13.02,10.88,16.50,,75.20,,,12.11,29.88,29.88,,38.15,421.70,16.70,0.0083,,,,810.00,0.0000,0.0984,0.00,0.00,0.00,2.04,10,1590202553,13.47,1590202063,32.90774,-117.36105,2,10,0.26,1.04,5.8,8.7,5118,312.4,1590202760,32.91727,-116.14405
2.1,CalCOFI Line 90 (SV3-253),deployed,Wave Glider,--,1590203526,2020,05,23,03,12,06,32.90853,-117.36589,-3.8,202.43,9.25,4.86,14.19,11.28,16.40,,76.20,,,12.21,29.88,29.88,,38.15,411.18,16.60,0.0083,,,,810.00,0.0000,0.0984,0.00,0.00,0.00,2.04,10,1590203318,13.41,1590202828,32.90853,-117.36589,2,11,0.23,1.01,7.0,7.9,4991,319.4,1590203526,32.92392,-118.26887
2.1,CalCOFI Line 90 (SV3-253),deployed,Wave Glider,--,1590204290,2020,05,23,03,24,50,32.90927,-117.37007,-2.8,196.95,8.09,4.86,11.86,9.86,16.40,,75.80,,,12.13,29.88,29.88,,38.15,410.22,16.60,0.0083,,,,810.00,0.0000,0.0984,0.00,0.00,0.00,2.04,10,1590204082,13.43,1590203593,32.90927,-117.37007,2,10,0.10,1.03,5.4,8.1,5153,320.3,1590204290,32.94556,-117.38788
2.1,CalCOFI Line 90 (SV3-253),deployed,Wave Glider,--,1590205047,2020,05,23,03,37,27,32.91003,-117.37438,0.9,188.80,9.12,4.47,13.61,11.12,16.30,,73.50,,,11.57,29.88,29.88,,38.15,391.84,16.60,0.0083,,,,820.00,0.0000,0.0984,0.00,0.00,0.00,2.04,10,1590204847,13.26,1590204358,32.91003,-117.37438,2,11,0.20,1.05,7.3,8.2,5071,320.3,1590205047,32.92429,-117.34988
2.1,CalCOFI Line 90 (SV3-253),deployed,Wave Glider,--,1590205820,2020,05,23,03,50,20,32.91078,-117.37876,0.0,179.48,8.94,4.67,14.39,10.90,16.40,,74.20,,,11.81,29.88,29.88,,38.15,406.40,16.50,0.0083,,,,820.00,0.0000,0.0984,0.00,0.00,0.00,2.04,10,1590205612,13.49,1590205123,32.91078,-117.37876,2,11,0.21,1.01,7.1,8.4,5118,321.5,1590205820,32.91527,-117.38788
2.1,CalCOFI Line 90 (SV3-253),deployed,Wave Glider,--,1590206582,2020,05,23,04,03,02,32.91154,-117.38304,0.2,190.49,7.31,4.08,11.08,8.91,16.40,,75.80,,,12.13,29.89,29.89,,28.90,398.76,16.50,0.0083,,,,830.00,0.0000,0.0984,0.00,0.00,0.00,2.04,10,1590206377,13.42,1590205888,32.91154,-117.38304,2,10,0.15,1.00,4.5,7.7,5289,323.3,1590206582,32.91527,-117.38788
2.1,CalCOFI Line 90 (SV3-253),deployed,Wave Glider,--,1590207351,2020,05,23,04,15,51,32.91218,-117.38698,2.5,206.33,8.85,5.05,12.83,10.78,16.40,,75.50,,,12.07,29.89,29.89,,28.90,398.05,16.60,0.0083,,,,830.00,0.0000,0.0984,0.00,0.00,0.00,2.04,10,1590207142,13.39,1590206653,32.91218,-117.38698,2,9,0.26,0.99,5.5,7.4,5223,324.1,1590207351,32.91527,-117.38788
2.1,CalCOFI Line 90 (SV3-253),deployed,Wave Glider,--,1590208115,2020,05,23,04,28,35,32.91295,-117.39097,-0.6,194.42,10.21,5.44,16.14,12.44,16.40,,73.30,,,11.63,29.89,29.89,,28.90,392.79,16.60,0.0091,,,,840.00,0.0000,0.0984,0.00,0.00,0.00,2.04,10,1590207907,13.50,1590207419,32.91295,-117.39097,2,10,-0.75,0.98,4.9,7.5,4552,59.7,1590208115,32.91527,-117.38788
2.1,CalCOFI Line 90 (SV3-253),deployed,Wave Glider,--,1590208882,2020,05,23,04,41,22,32.91038,-117.38944,-4.1,184.78,8.92,5.05,13.61,10.88,16.40,,73.20,,,11.60,29.89,29.89,,28.90,392.55,16.60,0.0091,,,,840.00,0.0000,0.0984,0.00,0.00,0.00,2.04,10,1590208673,13.43,1590208184,32.91038,-117.38944,2,8,-0.19,1.03,5.3,10.2,5454,343.9,1590208882,32.90687,-117.33022
2.1,CalCOFI Line 90 (SV3-253),deployed,Wave Glider,--,1590209642,2020,05,23,04,54,02,32.91165,-117.39108,2.4,186.52,8.09,3.50,11.66,9.86,16.50,,74.30,,,11.93,29.90,29.90,,19.64,396.62,16.60,0.0091,,,,840.00,0.0000,0.0984,0.00,0.00,0.00,2.04,10,1590209438,13.38,1590208949,32.91165,-117.39108,2,9,-0.34,1.01,5.3,9.8,5375,1.3,1590209642,32.91527,-117.38788
2.1,CalCOFI Line 90 (SV3-253),deployed,Wave Glider,--,1590210407,2020,05,23,05,06,47,32.91315,-117.39079,-1.0,202.49,7.08,2.92,11.08,8.63,16.50,,73.30,,,11.72,29.91,29.91,1012.90,10.40,382.77,16.70,0.0091,,,,840.00,0.0000,0.0984,0.00,0.00,0.00,2.04,10,1590210203,13.48,1590209711,32.91315,-117.39079,2,10,-0.26,1.03,5.5,9.3,5296,345.9,1590210407,32.91527,-117.38788
2.1,CalCOFI Line 90 (SV3-253),deployed,Wave Glider,--,1590211172,2020,05,23,05,19,32,32.91431,-117.39217,-2.8,200.02,5.19,1.36,9.14,6.33,16.60,,72.60,,,11.67,29.91,29.91,1012.90,10.40,393.96,16.80,0.0091,,,,840.00,0.0000,0.0984,0.00,0.00,0.00,2.04,10,1590210966,13.58,1590210476,32.91431,-117.39217,2,10,-0.19,1.03,5.0,7.3,5451,340.7,1590211172,32.90687,-117.33022
2.1,CalCOFI Line 90 (SV3-253),deployed,Wave Glider,--,1590211930,2020,05,23,05,32,10,32.91633,-117.39460,-3.2,163.36,7.52,3.50,11.28,9.17,16.60,,74.30,,,12.02,29.91,29.91,1012.90,10.40,398.07,16.80,0.0091,,,,840.00,0.0000,0.0984,0.00,0.00,0.00,2.04,10,1590211730,13.42,1590211241,32.91633,-117.39460,2,10,-0.45,1.04,4.6,7.1,5505,342.4,1590211930,32.91527,-117.38788
2.1,CalCOFI Line 90 (SV3-253),deployed,Wave Glider,--,1590212697,2020,05,23,05,44,57,32.91820,-117.39684,-4.9,164.75,8.18,4.28,12.05,9.98,16.70,,73.60,,,11.98,29.91,29.91,1012.90,10.40,409.27,16.80,0.0091,,,,840.00,0.0000,0.0984,0.00,0.00,0.00,2.04,10,1590212495,13.36,1590212006,32.91820,-117.39684,2,11,-0.38,1.07,4.3,8.3,5446,342.4,1590212697,32.90625,-117.42586
2.1,CalCOFI Line 90 (SV3-253),deployed,Wave Glider,--,1590213468,2020,05,23,05,57,48,32.92012,-117.39915,-1.5,164.36,7.95,3.69,11.66,9.69,16.80,,73.00,,,11.95,29.91,29.91,1012.89,10.40,420.69,16.90,0.0091,,,,850.00,0.0000,0.0984,0.00,0.00,0.00,2.04,10,1590213260,13.47,1590212772,32.92012,-117.39915,2,11,-0.33,1.09,6.3,7.2,5333,335.8,1590213468,32.91527,-117.38788
2.1,CalCOFI Line 90 (SV3-253),deployed,Wave Glider,--,1590214410,2020,05,23,06,13,30,32.92125,-117.40210,-3.6,175.09,8.57,4.28,,10.45,16.90,,72.50,,,11.94,29.91,29.91,1012.89,10.40,432.34,17.00,0.0091,,,,850.00,0.0000,0.0984,0.00,0.00,0.00,2.04,10,1590214026,13.43,1590213537,32.92125,-117.40210,2,11,0.07,1.01,6.4,7.3,4658,259.1,1590214410,32.90625,-117.42586
2.1,CalCOFI Line 90 (SV3-253),deployed,Wave Glider,--,1590215170,2020,05,23,06,26,10,32.91538,-117.40965,-5.2,147.98,8.85,3.89,13.61,10.78,16.90,,74.80,,,12.42,29.91,29.91,1012.89,10.40,438.01,17.10,0.0091,,,,850.00,0.0000,0.0984,0.00,0.00,0.00,2.04,10,1590214791,13.43,1590214483,32.91538,-117.40965,2,10,-0.97,1.07,4.2,7.6,5506,5.1,1590215170,32.91527,-117.38788
2.1,CalCOFI Line 90 (SV3-253),deployed,Wave Glider,--,1590216028,2020,05,23,06,40,28,32.91654,-117.40876,-3.7,151.19,8.28,4.28,13.22,10.10,16.80,,73.20,,,11.99,29.91,29.91,1012.89,10.40,421.18,17.10,0.0091,,,,850.00,0.0000,0.0984,0.00,0.00,0.00,2.04,10,1590215737,13.49,1590215246,32.91654,-117.40876,2,10,-0.92,1.05,4.7,7.3,5569,5.6,1590216028,32.90625,-117.42586
2.1,CalCOFI Line 90 (SV3-253),deployed,Wave Glider,--,1590216795,2020,05,23,06,53,15,32.91768,-117.40980,-1.4,169.44,8.67,4.86,12.64,10.57,17.00,,70.90,,,11.70,29.91,29.91,1012.89,10.40,441.25,17.10,0.0091,,,,850.00,0.0000,0.0984,0.00,0.00,0.00,2.04,10,1590216500,13.44,1590216099,32.91768,-117.40980,2,9,0.25,1.08,6.2,6.7,5519,270.7,1590216795,32.91527,-117.38788
2.1,CalCOFI Line 90 (SV3-253),deployed,Wave Glider,--,1590217553,2020,05,23,07,05,53,32.91443,-117.41460,5.0,126.31,7.54,3.50,11.47,9.20,17.00,,71.40,,,11.81,29.92,29.92,1013.23,1.15,431.05,17.20,0.0091,,,,860.00,0.0000,0.0984,0.00,0.00,0.00,2.04,10,1590217353,13.43,1590216864,32.91443,-117.41460,2,9,-1.16,0.99,5.3,6.7,5528,24.0,1590217553,32.90625,-117.42586
2.1,CalCOFI Line 90 (SV3-253),deployed,Wave Glider,--,1590218326,2020,05,23,07,18,46,32.91579,-117.41239,3.0,141.32,6.34,2.53,9.53,7.73,17.10,,68.90,,,11.36,29.92,29.92,1013.23,1.15,437.67,17.20,0.0091,,,,860.00,0.0000,0.0984,0.00,0.00,0.00,2.04,10,1590218119,13.41,1590217626,32.91579,-117.41239,2,10,-0.78,1.07,3.6,8.1,5554,355.8,1590218326,32.91587,-117.29221
2.1,CalCOFI Line 90 (SV3-253),deployed,Wave Glider,--,1590219089,2020,05,23,07,31,29,32.91702,-117.41271,7.5,151.02,6.10,3.11,9.72,7.44,17.10,,68.80,,,11.34,29.92,29.92,1013.23,1.15,437.42,17.30,0.0091,,,,860.00,0.0000,0.0984,0.00,0.00,0.00,2.04,10,1590218881,13.43,1590218391,32.91702,-117.41271,2,8,-0.63,1.07,2.8,7.0,5486,356.0,1590219089,32.98484,-119.82461
2.1,CalCOFI Line 90 (SV3-253),deployed,Wave Glider,--,1590219846,2020,05,23,07,44,06,32.91714,-117.41273,5.5,151.63,6.28,2.92,9.91,7.66,17.10,,71.00,,,11.82,29.91,29.91,1012.89,10.40,454.35,17.30,0.0091,,,,860.00,0.0000,0.0984,0.00,0.00,0.00,2.04,10,1590219646,13.42,1590219156,32.91714,-117.41273,2,9,-0.63,1.03,2.5,6.8,5524,355.0,1590219846,32.91527,-117.38788
2.1,CalCOFI Line 90 (SV3-253),deployed,Wave Glider,--,1590220618,2020,05,23,07,56,58,32.91733,-117.41278,5.8,157.95,8.22,4.28,11.47,10.03,17.20,,71.60,,,12.04,29.91,29.91,1012.89,10.40,468.72,17.30,0.0091,,,,860.00,0.0000,0.0984,0.00,0.00,0.00,2.04,10,1590220410,13.47,1590219921,32.91733,-117.41278,2,10,-0.65,1.07,3.0,7.6,5513,355.7,1590220618,32.90625,-117.42586
2.1,CalCOFI Line 90 (SV3-253),deployed,Wave Glider,--,1590221383,2020,05,23,08,09,43,32.91781,-117.41289,3.7,148.25,8.53,4.86,12.44,10.40,17.20,,70.10,,,11.72,29.91,29.91,1012.90,10.40,464.95,17.40,0.0091,,,,860.00,0.0000,0.0984,0.00,0.00,0.00,2.04,10,1590221175,13.43,1590220686,32.91781,-117.41289,2,10,-0.80,1.05,2.8,7.1,5523,355.5,1590221383,32.91527,-117.38788
2.1,CalCOFI Line 90 (SV3-253),deployed,Wave Glider,--,1590222145,2020,05,23,08,22,25,32.91831,-117.41302,5.5,156.53,10.11,3.50,14.97,12.32,17.30,,72.40,,,12.30,29.91,29.91,1012.89,10.40,483.60,17.40,0.0102,,,,880.00,0.0000,0.0984,0.00,0.00,0.00,2.04,10,1590221940,13.44,1590221451,32.91831,-117.41302,2,10,-0.99,1.05,3.6,6.9,4571,16.2,1590222145,32.91527,-117.38788
2.1,CalCOFI Line 90 (SV3-253),deployed,Wave Glider,--,1590222902,2020,05,23,08,35,02,32.91671,-117.41162,1.8,131.24,11.12,6.42,16.33,13.56,17.30,,73.30,,,12.49,29.91,29.91,1012.89,10.40,485.88,17.50,0.0102,,,,900.00,0.0000,0.0984,0.00,0.00,0.00,2.04,10,1590222705,13.41,1590222215,32.91671,-117.41162,2,10,-1.28,1.00,5.6,6.7,5233,78.9,1590222902,32.90625,-117.42586
2.1,CalCOFI Line 90 (SV3-253),deployed,Wave Glider,--,1590223673,2020,05,23,08,47,53,32.91397,-117.40936,3.7,148.21,9.72,4.86,14.97,11.85,17.20,,73.80,,,12.50,29.90,29.90,1012.56,19.64,485.69,17.50,0.0102,,,,900.00,0.0000,0.0984,0.00,0.00,0.00,2.04,10,1590223469,13.44,1590222978,32.91397,-117.40936,2,10,-0.48,1.04,3.5,8.6,5450,335.1,1590223673,32.91527,-117.38788
2.1,CalCOFI Line 90 (SV3-253),deployed,Wave Glider,--,1590224439,2020,05,23,09,00,39,32.91475,-117.41217,-1.9,144.88,10.52,6.03,15.94,12.82,17.30,,76.30,,,13.11,29.90,29.90,1012.56,19.64,504.91,17.40,0.0102,,,,900.00,0.0000,0.0984,0.00,0.00,0.00,2.04,10,1590224232,13.41,1590223744,32.91475,-117.41217,2,9,-1.06,1.00,4.2,8.6,5540,1.3,1590224439,32.88497,-117.38788
2.1,CalCOFI Line 90 (SV3-253),deployed,Wave Glider,--,1590225193,2020,05,23,09,13,13,32.91623,-117.41252,-4.8,149.73,10.75,6.42,15.36,13.11,17.20,,75.50,,,12.85,29.90,29.90,1012.56,19.64,489.96,17.40,0.0102,,,,910.00,0.0000,0.0984,0.00,0.00,0.00,2.04,10,1590224998,13.48,1590224507,32.91623,-117.41252,2,10,-0.94,1.02,3.8,7.9,5554,2.2,1590225193,32.91527,-117.38788
2.1,CalCOFI Line 90 (SV3-253),deployed,Wave Glider,--,1590225956,2020,05,23,09,25,56,32.91780,-117.41289,0.4,148.03,10.61,5.64,16.14,12.94,17.20,,74.70,,,12.68,29.89,29.89,1012.22,28.90,499.40,17.40,0.0102,,,,910.00,0.0000,0.0984,0.00,0.00,0.00,2.04,10,1590225761,13.42,1590225269,32.91780,-117.41289,2,10,-1.04,1.00,4.0,9.1,5576,2.5,1590225956,32.87799,-117.04330
2.1,CalCOFI Line 90 (SV3-253),deployed,Wave Glider,--,1590226722,2020,05,23,09,38,42,32.91960,-117.41331,-0.4,144.60,11.18,6.42,16.14,13.63,17.30,,76.30,,,13.11,29.89,29.89,1012.22,28.90,516.36,17.40,0.0106,,,,920.00,0.0000,0.0984,0.00,0.00,0.00,2.04,10,1590226524,13.44,1590226032,32.91960,-117.41331,2,10,-0.97,1.01,4.7,8.2,5462,1.3,1590226722,32.91527,-117.38788
2.1,CalCOFI Line 90 (SV3-253),deployed,Wave Glider,--,1590227491,2020,05,23,09,51,31,32.92178,-117.41383,-1.2,148.46,11.22,6.03,15.75,13.68,17.30,,75.20,,,12.88,29.89,29.89,1012.22,28.90,513.58,17.50,0.0106,,,,920.00,0.0000,0.0984,0.00,0.00,0.00,2.04,10,1590227287,13.41,1590226795,32.92178,-117.41383,2,9,-1.13,0.96,5.2,9.8,5595,1.6,1590227491,32.90625,-117.42586
2.1,CalCOFI Line 90 (SV3-253),deployed,Wave Glider,--,1590228255,2020,05,23,10,04,15,32.92415,-117.41442,0.8,140.60,11.04,5.44,16.91,13.46,17.30,,75.00,,,12.84,29.90,29.90,1012.56,19.64,501.62,17.50,0.0106,,,,920.00,0.0000,0.0984,0.00,0.00,0.00,2.04,10,1590228050,13.45,1590227558,32.92415,-117.41442,2,9,-1.23,0.94,4.1,8.8,5386,1.6,1590228255,32.96299,-117.40758
2.1,CalCOFI Line 90 (SV3-253),deployed,Wave Glider,--,1590229008,2020,05,23,10,16,48,32.92645,-117.41501,4.1,140.49,11.10,6.03,15.94,13.53,17.30,,75.50,,,12.94,29.89,29.89,1012.22,28.90,514.33,17.50,0.0106,,,,930.00,0.0000,0.0984,0.00,0.00,0.00,2.04,10,1590228812,13.42,1590228321,32.92645,-117.41501,2,9,-1.04,0.94,4.5,10.6,5552,1.9,1590229008,32.91527,-117.38788
2.1,CalCOFI Line 90 (SV3-253),deployed,Wave Glider,--,1590229835,2020,05,23,10,30,35,32.92906,-117.41559,-0.2,144.92,10.21,5.64,14.77,12.44,17.30,,75.50,,,12.94,29.90,29.90,1012.56,19.64,502.88,17.40,0.0106,,,,930.00,0.0000,0.0984,0.00,0.00,0.00,2.04,10,1590229575,13.41,1590229084,32.92906,-117.41559,2,10,-1.04,0.99,5.3,8.3,5543,359.8,1590229835,32.90625,-117.42586
2.1,CalCOFI Line 90 (SV3-253),deployed,Wave Glider,--,1590230602,2020,05,23,10,43,22,32.93175,-117.41623,-5.8,146.21,10.26,5.05,15.55,12.51,17.30,,75.10,,,12.86,29.91,29.91,1012.89,10.40,490.43,17.40,0.0106,,,,930.00,0.0000,0.0984,0.00,0.00,0.00,2.04,10,1590230338,13.44,1590229908,32.93175,-117.41623,2,10,-1.12,0.93,4.7,9.4,5551,1.8,1590230602,32.94556,-117.38788
2.1,CalCOFI Line 90 (SV3-253),deployed,Wave Glider,--,1590231367,2020,05,23,10,56,07,32.93361,-117.41532,-1.3,140.90,10.87,5.83,15.94,13.25,17.30,,75.20,,,12.88,29.90,29.90,1012.56,19.64,502.13,17.50,0.0106,,,,950.00,0.0000,0.0984,0.00,0.00,0.00,2.04,10,1590231162,13.44,1590230672,32.93361,-117.41532,2,10,-0.82,0.97,4.7,9.7,5185,355.4,1590231367,32.96299,-117.40758
2.1,CalCOFI Line 90 (SV3-253),deployed,Wave Glider,--,1590232132,2020,05,23,11,08,52,32.93545,-117.41711,-4.3,141.40,11.18,4.86,16.52,13.63,17.20,,76.10,,,12.97,29.89,29.89,1012.22,28.90,502.92,17.40,0.0106,,,,950.00,0.0000,0.0984,0.00,0.00,0.00,2.04,10,1590231926,13.41,1590231435,32.93545,-117.41711,2,9,-1.07,0.98,4.3,9.2,5862,358.2,1590232132,32.91527,-117.38788
2.1,CalCOFI Line 90 (SV3-253),deployed,Wave Glider,--,1590232892,2020,05,23,11,21,32,32.93832,-117.41779,-8.0,146.58,10.59,5.25,14.77,12.92,17.20,,74.90,,,12.73,29.89,29.89,1012.22,28.90,499.90,17.40,0.0106,,,,950.00,0.0000,0.0984,0.00,0.00,0.00,2.04,10,1590232689,13.41,1590232199,32.93832,-117.41779,2,8,-1.02,0.95,4.8,8.9,5247,358.7,1590232892,32.95676,-116.29705
2.1,CalCOFI Line 90 (SV3-253),deployed,Wave Glider,--,1590233651,2020,05,23,11,34,11,32.94144,-117.41856,-1.0,147.45,10.24,4.67,15.75,12.49,17.30,,77.30,,,13.30,29.90,29.90,1012.56,19.64,507.43,17.40,0.0106,,,,950.00,0.0000,0.0984,0.00,0.00,0.00,2.04,10,1590233453,13.44,1590232963,32.94144,-117.41856,2,8,-0.91,0.95,3.8,10.2,5515,358.5,1590233651,32.94556,-117.38788
2.1,CalCOFI Line 90 (SV3-253),deployed,Wave Glider,--,1590234422,2020,05,23,11,47,02,32.94441,-117.41926,0.9,189.63,8.94,2.53,14.19,10.90,17.10,,76.60,,,12.97,29.90,29.90,1012.56,19.64,479.78,17.40,0.0106,,,,960.00,0.0000,0.0984,0.00,0.00,0.00,2.04,10,1590234217,13.41,1590233727,32.94441,-117.41926,2,9,-0.48,1.03,5.3,9.2,5494,355.4,1590234422,32.90625,-117.42586
2.1,CalCOFI Line 90 (SV3-253),deployed,Wave Glider,--,1590235186,2020,05,23,11,59,46,32.94762,-117.42002,1.2,256.35,7.27,2.72,12.05,8.86,16.80,,75.80,,,12.52,29.90,29.90,1012.56,19.64,439.00,17.10,0.0110,,,,990.00,0.0000,0.0984,0.00,0.00,0.00,2.04,10,1590234981,13.43,1590234491,32.94762,-117.42002,2,10,-0.06,1.02,5.4,9.5,5513,349.9,1590235186,32.96299,-117.40758
2.1,CalCOFI Line 90 (SV3-253),deployed,Wave Glider,--,1590235957,2020,05,23,12,12,37,32.95038,-117.42070,2.0,262.51,5.27,0.39,9.53,6.42,16.70,,75.10,,,12.28,29.90,29.90,1012.56,19.64,424.37,17.00,0.0110,,,,990.00,0.0000,0.0984,0.00,0.00,0.00,2.04,10,1590235746,13.43,1590235257,32.95038,-117.42070,2,10,-0.07,1.02,4.9,8.3,5281,350.6,1590235957,32.94556,-117.38788
2.1,CalCOFI Line 90 (SV3-253),deployed,Wave Glider,--,1590236786,2020,05,23,12,26,26,32.95309,-117.42132,1.5,261.16,4.61,0.58,9.33,5.62,16.70,,75.80,,,12.42,29.90,29.90,1012.56,19.64,426.07,16.90,0.0110,,,,990.00,0.0000,0.0984,0.00,0.00,0.00,2.04,10,1590236512,13.41,1590236023,32.95309,-117.42132,2,9,-0.07,0.99,5.1,6.8,5391,346.5,1590236786,32.96299,-117.40758
2.1,CalCOFI Line 90 (SV3-253),deployed,Wave Glider,--,1590237545,2020,05,23,12,39,05,32.95585,-117.42200,2.6,267.35,5.05,1.56,8.55,6.16,16.70,,75.80,,,12.42,29.90,29.90,1012.56,19.64,426.07,16.90,0.0110,,,,990.00,0.0000,0.0984,0.00,0.00,0.00,2.04,10,1590237278,13.41,1590236849,32.95585,-117.42200,2,9,-0.01,1.03,4.5,7.1,5419,345.6,1590237545,32.96299,-117.40758
2.1,CalCOFI Line 90 (SV3-253),deployed,Wave Glider,--,1590238304,2020,05,23,12,51,44,32.95858,-117.42266,2.5,273.96,4.90,0.97,10.11,5.97,16.60,,75.60,,,12.29,29.90,29.90,1012.56,19.64,412.67,16.80,0.0110,,,,990.00,0.0000,0.0984,0.00,0.00,0.00,2.04,10,1590238104,13.45,1590237614,32.95858,-117.42266,2,8,-0.05,1.08,4.2,7.4,5529,346.2,1590238304,32.96299,-117.40758
2.1,CalCOFI Line 90 (SV3-253),deployed,Wave Glider,--,1590239072,2020,05,23,13,04,32,32.96117,-117.42329,3.0,277.39,3.64,0.19,7.39,4.43,16.50,,74.30,,,11.93,29.91,29.91,1012.90,10.40,385.17,16.70,0.0110,,,,990.00,0.0000,0.0984,0.00,0.00,0.00,2.04,10,1590238868,13.47,1590238380,32.96117,-117.42329,2,8,-0.09,1.05,5.1,6.2,5481,344.1,1590239072,32.96299,-117.40758
2.1,CalCOFI Line 90 (SV3-253),deployed,Wave Glider,--,1590239845,2020,05,23,13,17,25,32.96379,-117.42394,-0.9,250.24,2.37,0.19,6.03,2.89,16.50,,74.60,,,11.99,29.91,29.91,1012.90,10.40,385.89,16.70,0.0110,,,,990.00,0.0000,0.0984,0.00,0.00,0.00,2.04,10,1590239634,13.43,1590239146,32.96379,-117.42394,2,10,-0.01,1.03,4.8,6.2,5361,342.5,1590239845,33.00164,-117.46531
2.1,CalCOFI Line 90 (SV3-253),deployed,Wave Glider,--,1590240603,2020,05,23,13,30,03,32.96651,-117.42459,-2.4,257.40,2.80,0.19,7.58,3.41,16.50,,74.90,,,12.05,29.91,29.91,1012.90,10.40,386.61,16.80,0.0110,,,,1000.00,0.0000,0.0984,0.00,0.00,0.00,2.04,10,1590240400,13.38,1590239912,32.96651,-117.42459,2,9,0.01,1.06,4.7,5.8,5379,341.4,1590240603,32.96299,-117.40758
2.1,CalCOFI Line 90 (SV3-253),deployed,Wave Glider,--,1590241376,2020,05,23,13,42,56,32.96936,-117.42531,-4.4,262.63,2.70,0.19,6.03,3.29,16.50,,74.30,,,11.93,29.91,29.91,1012.90,10.40,385.17,16.70,0.0110,,,,1000.00,0.0000,0.0984,0.00,0.00,0.00,2.04,10,1590241166,13.45,1590240678,32.96936,-117.42531,2,10,-0.09,1.05,5.3,5.9,5349,339.1,1590241376,32.96299,-117.40758
2.1,CalCOFI Line 90 (SV3-253),deployed,Wave Glider,--,1590242134,2020,05,23,13,55,34,32.97195,-117.42593,-5.7,246.10,3.19,0.39,6.22,3.89,16.50,,74.50,,,11.97,29.91,29.91,1012.90,10.40,385.65,16.80,0.0110,,,,1000.00,0.0000,0.0984,0.00,0.00,0.00,2.04,10,1590241932,13.45,1590241444,32.97195,-117.42593,2,10,-0.02,1.02,4.5,6.1,5447,338.9,1590242134,32.99326,-117.40758
2.1,CalCOFI Line 90 (SV3-253),deployed,Wave Glider,--,1590242967,2020,05,23,14,09,27,32.97491,-117.42666,-6.4,236.05,3.91,0.97,7.00,4.76,16.60,,74.60,,,12.08,29.91,29.91,1012.90,10.40,398.80,16.90,0.0110,,,,1000.00,0.0000,0.0984,0.00,0.00,0.00,2.04,10,1590242698,13.45,1590242210,32.97491,-117.42666,2,9,-0.15,1.08,3.4,7.5,5359,332.5,1590242967,32.99326,-117.40758
2.1,CalCOFI Line 90 (SV3-253),deployed,Wave Glider,--,1590243737,2020,05,23,14,22,17,32.97727,-117.42723,-8.0,244.03,4.65,1.36,8.16,5.66,16.70,,73.50,,,11.96,29.91,29.91,1012.90,10.40,409.02,17.10,0.0110,,,,1010.00,0.0000,0.0984,0.00,0.00,0.00,2.04,10,1590243464,13.42,1590243036,32.97727,-117.42723,2,9,-0.14,1.11,5.1,6.7,5151,328.8,1590243737,32.98421,-117.44557
2.1,CalCOFI Line 90 (SV3-253),deployed,Wave Glider,--,1590244500,2020,05,23,14,35,00,32.97921,-117.42770,-6.1,232.93,4.57,0.78,7.97,5.57,16.60,,73.20,,,11.80,29.91,29.91,1012.90,10.40,395.41,17.00,0.0110,,,,1010.00,0.0000,0.0984,0.00,0.00,0.00,2.04,10,1590244290,13.43,1590243801,32.97921,-117.42770,2,9,0.02,1.08,4.2,8.7,5055,328.6,1590244500,32.96299,-117.40758
2.1,CalCOFI Line 90 (SV3-253),deployed,Wave Glider,--,1590245257,2020,05,23,14,47,37,32.98104,-117.42816,-7.0,229.93,5.29,1.75,8.75,6.45,16.70,,72.90,,,11.83,29.91,29.91,1012.90,10.40,407.56,17.20,0.0110,,,,1010.00,0.0000,0.0984,0.00,0.00,0.00,2.04,10,1590245056,13.49,1590244567,32.98104,-117.42816,2,10,-0.00,1.08,4.0,6.6,5237,326.7,1590245257,32.96350,-118.23116
2.1,CalCOFI Line 90 (SV3-253),deployed,Wave Glider,--,1590246023,2020,05,23,15,00,23,32.98263,-117.42852,-4.8,242.14,5.25,2.53,8.36,6.40,16.70,,72.50,,,11.75,29.91,29.91,1012.90,10.40,406.59,17.30,0.0110,,,,1010.00,0.0000,0.0984,0.00,0.00,0.00,2.04,10,1590245823,13.44,1590245333,32.98263,-117.42852,2,11,-0.11,1.16,4.6,8.2,5068,321.4,1590246023,32.99326,-117.40758
2.1,CalCOFI Line 90 (SV3-253),deployed,Wave Glider,--,1590246794,2020,05,23,15,13,14,32.98408,-117.42886,-3.3,229.84,5.52,2.72,8.16,6.73,16.70,,73.50,,,11.96,29.92,29.92,1013.23,1.15,397.58,17.50,0.0110,,,,1010.00,0.0000,0.0984,0.00,0.00,0.00,2.04,10,1590246587,13.53,1590246099,32.98408,-117.42886,2,10,-0.06,1.07,6.6,8.5,4869,311.2,1590246794,32.95394,-117.44557
2.1,CalCOFI Line 90 (SV3-253),deployed,Wave Glider,--,1590247562,2020,05,23,15,26,02,32.98457,-117.42897,-2.1,232.22,5.85,2.92,9.91,7.13,16.80,,71.50,,,11.63,29.92,29.92,1013.23,1.15,405.57,17.60,0.0110,,,,1020.00,0.0000,0.0984,0.00,0.00,0.00,2.04,10,1590247353,13.50,1590246865,32.98457,-117.42897,2,9,-0.27,1.12,5.3,6.6,4522,280.4,1590247562,32.99326,-117.40758
2.1,CalCOFI Line 90 (SV3-253),deployed,Wave Glider,--,1590248335,2020,05,23,15,38,55,32.98322,-117.42961,-0.4,219.29,5.54,2.92,8.94,6.75,16.90,,72.80,,,12.00,29.92,29.92,1013.23,1.15,421.63,17.60,0.0110,,,,1020.00,0.0000,0.0984,0.00,0.00,0.00,2.04,10,1590248119,13.51,1590247631,32.98322,-117.42961,2,11,-0.24,1.05,4.3,6.6,5090,291.7,1590248335,32.98421,-117.44557
2.1,CalCOFI Line 90 (SV3-253),deployed,Wave Glider,--,1590249092,2020,05,23,15,51,32,32.98283,-117.42949,1.6,226.93,5.87,2.33,9.14,7.16,16.80,,73.40,,,12.03,29.92,29.92,1013.23,1.15,410.22,17.60,0.0110,,,,1030.00,0.0000,0.0984,0.00,0.00,0.00,2.04,10,1590248885,13.46,1590248397,32.98283,-117.42949,2,11,-0.17,1.06,4.3,6.9,5011,323.6,1590249092,32.96299,-117.40758
2.1,CalCOFI Line 90 (SV3-253),deployed,Wave Glider,--,1590249919,2020,05,23,16,05,19,32.98357,-117.42874,-0.6,233.08,6.28,3.50,10.50,7.66,16.80,,71.20,,,11.57,29.92,29.92,1013.23,1.15,404.84,17.60,0.0110,,,,1030.00,0.0000,0.0984,0.00,0.00,0.00,2.04,10,1590249651,13.41,1590249162,32.98357,-117.42874,2,11,0.04,1.13,4.4,5.8,5110,316.9,1590249919,32.98421,-117.44557
2.1,CalCOFI Line 90 (SV3-253),deployed,Wave Glider,--,1590250680,2020,05,23,16,18,00,32.98443,-117.42887,-0.8,229.91,6.71,3.50,10.50,8.18,16.80,,71.30,,,11.59,29.92,29.92,1013.23,1.15,405.08,17.60,0.0110,,,,1030.00,0.0000,0.0984,0.00,0.00,0.00,2.04,10,1590250417,13.52,1590249988,32.98443,-117.42887,2,10,0.10,1.09,4.2,5.5,5056,310.6,1590250680,32.99326,-117.40758
2.1,CalCOFI Line 90 (SV3-253),deployed,Wave Glider,--,1590251448,2020,05,23,16,30,48,32.98478,-117.42897,-3.7,226.70,6.08,2.72,9.72,7.42,16.80,,70.90,,,11.51,29.91,29.91,1012.90,10.40,415.55,17.60,0.0110,,,,1040.00,0.0000,0.0984,0.00,0.00,0.00,2.04,10,1590251243,13.42,1590250754,32.98478,-117.42897,2,10,0.02,1.15,4.3,6.1,5005,313.4,1590251448,32.95394,-117.44557
2.1,CalCOFI Line 90 (SV3-253),deployed,Wave Glider,--,1590252217,2020,05,23,16,43,37,32.98517,-117.42909,-3.7,229.40,7.08,4.47,9.91,8.63,16.80,,71.10,,,11.55,29.92,29.92,1013.23,1.15,404.59,17.60,0.0114,,,,1050.00,0.0000,0.0984,0.00,0.00,0.00,2.04,10,1590252008,13.49,1590251520,32.98517,-117.42909,2,9,0.19,1.16,5.1,5.7,0,312.6,1590252217,32.99326,-117.40758
2.1,CalCOFI Line 90 (SV3-253),deployed,Wave Glider,--,1590252975,2020,05,23,16,56,15,32.98552,-117.42921,-3.2,227.18,6.51,3.11,10.11,7.94,16.80,,73.60,,,12.07,29.92,29.92,1013.23,1.15,410.71,17.60,0.0114,,,,1050.00,0.0000,0.0984,0.00,0.00,0.00,2.04,10,1590252774,13.38,1590252285,32.98552,-117.42921,2,9,0.10,1.17,4.6,7.0,4989,316.4,1590252975,33.00012,-117.65681
2.1,CalCOFI Line 90 (SV3-253),deployed,Wave Glider,--,1590253742,2020,05,23,17,09,02,32.98622,-117.42943,-5.4,236.20,6.36,2.72,10.11,7.75,16.80,,72.20,,,11.78,29.92,29.92,1013.23,1.15,407.28,17.60,0.0114,,,,1050.00,0.0000,0.0984,0.00,0.00,0.00,2.04,10,1590253541,13.44,1590253051,32.98622,-117.42943,2,9,0.12,1.16,6.1,5.4,5294,328.6,1590253742,32.99326,-117.40758
2.1,CalCOFI Line 90 (SV3-253),deployed,Wave Glider,--,1590254515,2020,05,23,17,21,55,32.98894,-117.43005,-1.6,237.16,6.80,4.08,10.69,8.30,16.80,,70.90,,,11.51,29.92,29.92,1013.23,1.15,404.10,17.70,0.0114,,,,1050.00,0.0000,0.0984,0.00,0.00,0.00,2.04,10,1590254306,13.41,1590253817,32.98894,-117.43005,2,10,0.09,1.11,5.1,5.8,5231,327.1,1590254515,32.99326,-117.40758
2.1,CalCOFI Line 90 (SV3-253),deployed,Wave Glider,--,1590255280,2020,05,23,17,34,40,32.99160,-117.43070,0.5,242.32,6.82,3.89,9.72,8.32,16.90,,71.10,,,11.65,29.93,29.93,1013.57,-8.09,406.00,17.70,0.0114,,,,1060.00,0.0000,0.0984,0.00,0.00,0.00,2.04,10,1590255073,13.43,1590254583,32.99160,-117.43070,2,9,0.16,1.15,4.4,6.0,5061,323.9,1590255280,33.01071,-117.42730
2.1,CalCOFI Line 90 (SV3-253),deployed,Wave Glider,--,1590256046,2020,05,23,17,47,26,32.99380,-117.43127,2.1,235.90,6.67,3.69,9.91,8.13,16.90,,71.20,,,11.67,29.92,29.92,1013.23,1.15,417.69,17.70,0.0114,,,,1060.00,0.0000,0.0984,0.00,0.00,0.00,2.04,10,1590255838,13.50,1590255349,32.99380,-117.43127,2,10,0.21,1.10,4.5,5.7,5045,320.9,1590256046,32.99326,-117.40758
2.1,CalCOFI Line 90 (SV3-253),deployed,Wave Glider,--,1590256814,2020,05,23,18,00,14,32.99598,-117.43177,4.0,231.28,7.12,3.89,10.50,8.67,16.90,,71.50,,,11.73,29.93,29.93,1013.57,-8.09,406.99,17.70,0.0114,,,,1060.00,0.0000,0.0984,0.00,0.00,0.00,2.04,10,1590256604,13.46,1590256115,32.99598,-117.43177,2,10,0.07,1.13,5.1,5.7,5005,318.7,1590256814,33.04097,-117.42730
2.1,CalCOFI Line 90 (SV3-253),deployed,Wave Glider,--,1590257575,2020,05,23,18,12,55,32.99795,-117.43224,4.1,229.18,6.67,3.11,9.72,8.13,16.80,,71.60,,,11.66,29.94,29.94,1013.91,-17.34,382.93,17.70,0.0114,,,,1060.00,0.0000,0.0984,0.00,0.00,0.00,2.04,10,1590257370,13.43,1590256881,32.99795,-117.43224,2,10,0.07,1.18,4.4,6.4,4982,317.5,1590257575,33.01071,-117.42730
2.1,CalCOFI Line 90 (SV3-253),deployed,Wave Glider,--,1590258345,2020,05,23,18,25,45,32.99997,-117.43276,5.3,240.85,6.55,2.92,9.53,7.99,17.00,,71.50,,,11.83,29.94,29.94,1013.91,-17.34,408.41,17.90,0.0114,,,,1070.00,0.0000,0.0984,0.00,0.00,0.00,2.04,10,1590258136,13.43,1590257647,32.99997,-117.43276,2,10,0.05,1.19,5.0,5.8,5047,316.6,1590258345,32.99326,-117.40758
2.1,CalCOFI Line 90 (SV3-253),deployed,Wave Glider,--,1590259105,2020,05,23,18,38,25,33.00208,-117.43329,3.4,244.90,6.78,3.50,9.72,8.27,16.90,,69.40,,,11.28,29.94,29.94,1013.91,-17.34,390.38,17.80,0.0114,,,,1070.00,0.0000,0.0984,0.00,0.00,0.00,2.04,10,1590258902,13.45,1590258413,33.00208,-117.43329,2,10,0.04,1.12,4.3,5.5,5039,319.6,1590259105,32.99326,-117.40758
2.1,CalCOFI Line 90 (SV3-253),deployed,Wave Glider,--,1590259876,2020,05,23,18,51,16,33.00437,-117.43380,-6.4,233.81,7.45,4.08,10.50,9.08,16.90,,70.30,,,11.47,29.93,29.93,1013.57,-8.09,404.03,17.90,0.0114,,,,1070.00,0.0000,0.0984,0.00,0.00,0.00,2.04,10,1590259668,13.46,1590259179,33.00437,-117.43380,2,10,0.09,1.07,4.4,6.4,5033,316.2,1590259876,33.03472,-116.89070
2.1,CalCOFI Line 90 (SV3-253),deployed,Wave Glider,--,1590260635,2020,05,23,19,03,55,33.00643,-117.43429,-6.7,239.12,7.15,3.50,11.08,8.72,17.00,,69.90,,,11.48,29.93,29.93,1013.57,-8.09,415.89,17.80,0.0114,,,,1070.00,0.0000,0.0984,0.00,0.00,0.00,2.04,10,1590260434,13.45,1590259945,33.00643,-117.43429,2,10,0.05,1.13,3.7,5.2,5026,315.5,1590260635,32.97490,-119.51642
2.1,CalCOFI Line 90 (SV3-253),deployed,Wave Glider,--,1590261410,2020,05,23,19,16,50,33.00851,-117.43480,-4.7,233.47,7.89,5.05,11.28,9.62,16.90,,70.50,,,11.52,29.93,29.93,1013.57,-8.09,404.53,17.80,0.0114,,,,1080.00,0.0000,0.0984,0.00,0.00,0.00,2.04,10,1590261200,13.40,1590260710,33.00851,-117.43480,2,10,0.19,1.11,4.2,5.7,4990,314.3,1590261410,33.01071,-117.42730
2.1,CalCOFI Line 90 (SV3-253),deployed,Wave Glider,--,1590262174,2020,05,23,19,29,34,33.01031,-117.43525,-5.7,237.38,8.05,4.67,11.66,9.81,16.90,,68.10,,,10.99,29.94,29.94,1013.91,-17.34,387.18,17.80,0.0114,,,,1080.00,0.0000,0.0984,0.00,0.00,0.00,2.04,10,1590261966,13.41,1590261476,33.01031,-117.43525,2,10,0.15,1.15,4.7,5.5,4996,315.5,1590262174,32.99326,-117.40758
2.1,CalCOFI Line 90 (SV3-253),deployed,Wave Glider,--,1590262941,2020,05,23,19,42,21,33.01249,-117.43579,-5.9,229.41,8.69,5.64,12.05,10.59,16.90,,71.00,,,11.62,29.93,29.93,1013.57,-8.09,405.76,17.70,0.0114,,,,1080.00,0.0000,0.0984,0.00,0.00,0.00,2.04,10,1590262732,13.39,1590262242,33.01249,-117.43579,2,9,0.35,1.16,4.5,6.8,5057,317.8,1590262941,32.99326,-117.40758
2.1,CalCOFI Line 90 (SV3-253),deployed,Wave Glider,--,1590263706,2020,05,23,19,55,06,33.01475,-117.43636,-7.2,239.08,8.42,5.25,11.86,10.26,16.90,,71.30,,,11.69,29.93,29.93,1013.57,-8.09,406.50,17.70,0.0114,,,,1080.00,0.0000,0.0984,0.00,0.00,0.00,2.04,10,1590263498,13.47,1590263008,33.01475,-117.43636,2,7,0.17,1.10,5.1,5.4,5147,320.8,1590263706,33.04097,-117.42730
2.1,CalCOFI Line 90 (SV3-253),deployed,Wave Glider,--,1590264483,2020,05,23,20,08,03,33.01751,-117.43703,-5.0,235.91,7.83,4.67,11.28,9.55,16.80,,68.90,,,11.07,29.93,29.93,1013.57,-8.09,387.76,17.70,0.0114,,,,1090.00,0.0000,0.0984,0.00,0.00,0.00,2.04,10,1590264264,13.46,1590263774,33.01751,-117.43703,2,7,0.16,1.12,4.8,5.8,5166,326.9,1590264483,32.99326,-117.40758
2.1,CalCOFI Line 90 (SV3-253),deployed,Wave Glider,--,1590265240,2020,05,23,20,20,40,33.02044,-117.43773,-2.1,238.85,7.37,4.08,10.89,8.98,16.90,,68.90,,,11.17,29.92,29.92,1013.23,1.15,412.03,17.70,0.0114,,,,1090.00,0.0000,0.0984,0.00,0.00,0.00,2.04,10,1590265029,13.53,1590264540,33.02044,-117.43773,2,8,0.13,1.09,6.1,6.3,5132,328.7,1590265240,33.01071,-117.42730
2.1,CalCOFI Line 90 (SV3-253),deployed,Wave Glider,--,1590266770,2020,05,23,20,46,10,33.02722,-117.43944,1.4,239.79,7.04,3.69,10.11,8.58,16.80,,68.10,,,10.90,29.92,29.92,1013.23,1.15,397.25,17.80,0.0114,,,,1090.00,0.0000,0.0984,0.00,0.00,0.00,2.04,10,1590266561,13.45,1590266072,33.02722,-117.43944,2,9,0.15,1.11,4.6,7.0,5195,335.3,1590266770,33.00230,-117.36955
2.1,CalCOFI Line 90 (SV3-253),deployed,Wave Glider,--,1590267533,2020,05,23,20,58,53,33.03129,-117.44043,0.8,242.24,6.78,3.30,10.30,8.27,16.80,,69.70,,,11.25,29.92,29.92,1013.23,1.15,401.16,17.80,0.0114,,,,1090.00,0.0000,0.0984,0.00,0.00,0.00,2.04,10,1590267327,13.40,1590266838,33.03129,-117.44043,2,10,0.18,1.12,4.4,6.5,5197,337.9,1590267533,33.04380,-116.75668
2.1,CalCOFI Line 90 (SV3-253),deployed,Wave Glider,--,1590268301,2020,05,23,21,11,41,33.03560,-117.44149,2.3,245.19,5.52,2.14,9.53,6.73,16.80,,68.70,,,11.03,29.93,29.93,1013.57,-8.09,387.27,17.80,0.0114,,,,1090.00,0.0000,0.0984,0.00,0.00,0.00,2.04,10,1590268093,13.42,1590267604,33.03560,-117.44149,2,9,0.07,1.06,4.8,6.2,5360,340.7,1590268301,33.04861,-117.58090
2.1,CalCOFI Line 90 (SV3-253),deployed,Wave Glider,--,1590269067,2020,05,23,21,24,27,33.03983,-117.44255,3.3,262.43,5.00,1.94,9.53,6.09,16.80,,68.00,,,10.88,29.93,29.93,1013.57,-8.09,385.56,17.90,0.0114,,,,1090.00,0.0000,0.0984,0.00,0.00,0.00,2.04,10,1590268859,13.46,1590268370,33.03983,-117.44255,2,9,0.13,1.06,4.8,6.1,5328,345.4,1590269067,33.04097,-117.42730
2.1,CalCOFI Line 90 (SV3-253),deployed,Wave Glider,--,1590269825,2020,05,23,21,37,05,33.04440,-117.44367,-3.4,278.68,4.28,0.39,7.19,5.21,16.90,,68.80,,,11.15,29.93,29.93,1013.57,-8.09,400.34,18.10,0.0114,,,,1090.00,0.0000,0.0984,0.00,0.00,0.00,2.04,10,1590269625,13.41,1590269136,33.04440,-117.44367,2,8,0.11,1.05,6.3,5.7,5344,347.0,1590269825,33.04097,-117.42730
2.1,CalCOFI Line 90 (SV3-253),deployed,Wave Glider,--,1590270662,2020,05,23,21,51,02,33.04865,-117.44474,-3.0,272.47,4.20,0.97,7.39,5.12,17.00,,67.70,,,11.00,29.92,29.92,1013.23,1.15,421.87,18.20,0.0114,,,,1090.00,0.0000,0.0984,0.00,0.00,0.00,2.04,10,1590270391,13.49,1590269901,33.04865,-117.44474,2,8,-0.06,1.08,4.2,6.0,5420,347.1,1590270662,33.07121,-117.42730
2.1,CalCOFI Line 90 (SV3-253),deployed,Wave Glider,--,1590271423,2020,05,23,22,03,43,33.05320,-117.44588,-0.7,255.06,3.95,1.17,7.97,4.81,17.00,,67.30,,,10.91,29.92,29.92,1013.23,1.15,420.88,18.30,0.0114,,,,1090.00,0.0000,0.0984,0.00,0.00,0.00,2.04,10,1590271157,13.43,1590270727,33.05320,-117.44588,2,8,-0.07,1.12,4.6,6.9,5397,349.3,1590271423,33.04097,-117.42730
2.1,CalCOFI Line 90 (SV3-253),deployed,Wave Glider,--,1590272184,2020,05,23,22,16,24,33.05741,-117.44689,0.4,251.21,3.81,0.58,7.39,4.65,17.10,,66.10,,,10.74,29.91,29.91,1012.89,10.40,442.13,18.40,0.0114,,,,1090.00,0.0000,0.0984,0.00,0.00,0.00,2.04,10,1590271983,13.45,1590271493,33.05741,-117.44689,2,8,-0.07,1.09,5.1,6.4,5424,349.7,1590272184,33.04097,-117.42730
2.1,CalCOFI Line 90 (SV3-253),deployed,Wave Glider,--,1590272952,2020,05,23,22,29,12,33.06184,-117.44795,-3.8,225.40,3.60,0.97,6.61,4.38,17.10,,66.50,,,10.83,29.91,29.91,1012.89,10.40,443.12,18.40,0.0114,,,,1090.00,0.0000,0.0984,0.00,0.00,0.00,2.04,10,1590272748,13.41,1590272259,33.06184,-117.44795,2,9,-0.07,1.08,4.7,5.7,5437,350.6,1590272952,33.08868,-117.44705
2.1,CalCOFI Line 90 (SV3-253),deployed,Wave Glider,--,1590273715,2020,05,23,22,41,55,33.06637,-117.44912,-2.6,241.24,3.29,0.39,7.19,4.01,17.20,,67.40,,,11.13,29.91,29.91,1012.89,10.40,458.17,18.50,0.0114,,,,1090.00,0.0000,0.0984,0.00,0.00,0.00,2.04,10,1590273514,13.43,1590273025,33.06637,-117.44912,2,9,-0.03,1.06,5.1,6.3,5436,355.5,1590273715,33.05844,-117.44705
2.1,CalCOFI Line 90 (SV3-253),deployed,Wave Glider,--,1590274483,2020,05,23,22,54,43,33.07099,-117.45023,-1.6,259.74,2.47,0.19,5.44,3.01,17.30,,65.00,,,10.67,29.91,29.91,1012.89,10.40,464.91,18.60,0.0114,,,,1090.00,0.0000,0.0984,0.00,0.00,0.00,2.04,10,1590274280,13.44,1590273791,33.07099,-117.45023,2,9,-0.05,1.02,5.7,7.0,5495,359.1,1590274483,33.08868,-117.44705
2.1,CalCOFI Line 90 (SV3-253),deployed,Wave Glider,--,1590275243,2020,05,23,23,07,23,33.07555,-117.45135,-1.1,275.99,2.60,0.19,5.83,3.18,17.40,,64.70,,,10.70,29.91,29.91,1012.89,10.40,476.91,19.00,0.0114,,,,1090.00,0.0000,0.0984,0.00,0.00,0.00,2.04,10,1590275046,13.44,1590274556,33.07555,-117.45135,2,9,-0.12,1.08,6.2,5.5,5482,359.9,1590275243,33.08027,-117.38926
2.1,CalCOFI Line 90 (SV3-253),deployed,Wave Glider,--,1590276011,2020,05,23,23,20,11,33.08019,-117.45246,-9.3,268.96,2.55,0.19,5.83,3.10,17.50,,64.90,,,10.84,29.91,29.91,1012.89,10.40,490.18,19.10,0.0114,,,,1090.00,0.0000,0.0984,0.00,0.00,0.00,2.04,10,1590275811,13.43,1590275320,33.08019,-117.45246,2,8,-0.22,1.03,3.8,5.8,5428,359.7,1590276011,33.08868,-117.44705
2.1,CalCOFI Line 90 (SV3-253),deployed,Wave Glider,--,1590276780,2020,05,23,23,33,00,33.08459,-117.45353,-7.9,265.80,2.70,0.19,6.03,3.29,17.50,,64.30,,,10.70,29.90,29.90,1012.56,19.64,500.08,19.10,0.0114,,,,1090.00,0.0000,0.0984,0.00,0.00,0.00,2.04,10,1590276575,13.44,1590276085,33.08459,-117.45353,2,8,-0.08,1.04,4.7,5.4,5508,5.0,1590276780,33.08868,-117.44705
2.1,CalCOFI Line 90 (SV3-253),deployed,Wave Glider,--,1590277544,2020,05,23,23,45,44,33.08910,-117.45466,-5.5,284.52,2.92,0.19,6.22,3.56,17.60,,64.30,,,10.80,29.90,29.90,1012.56,19.64,512.83,19.00,0.0114,,,,1090.00,0.0000,0.0984,0.00,0.00,0.00,2.04,10,1590277340,13.42,1590276848,33.08910,-117.45466,2,9,-0.24,1.07,4.2,6.4,5457,4.7,1590277544,33.08868,-117.44705
2.1,CalCOFI Line 90 (SV3-253),deployed,Wave Glider,--,1590278301,2020,05,23,23,58,21,33.09348,-117.45571,-3.8,234.43,1.92,0.00,5.05,2.35,17.70,,64.10,,,10.85,29.90,29.90,1012.56,19.64,525.07,19.10,0.0114,,,,1090.00,0.0000,0.0984,0.00,0.00,0.00,2.04,10,1590278103,13.41,1590277610,33.09348,-117.45571,2,10,-0.09,1.06,4.9,5.8,5429,4.3,1590278301,33.08868,-117.44705
2.1,CalCOFI Line 90 (SV3-253),deployed,Wave Glider,--,1590279071,2020,05,24,00,11,11,33.09760,-117.45674,-9.7,275.97,2.37,0.19,5.44,2.89,17.80,,63.90,,,10.89,29.90,29.90,1012.56,19.64,537.30,19.20,0.0114,,,,1090.00,0.0000,0.0984,0.00,0.00,0.00,2.04,10,1590278866,13.43,1590278373,33.09760,-117.45674,2,11,-0.13,1.10,4.1,5.5,5432,359.2,1590279071,33.11891,-117.44705
2.1,CalCOFI Line 90 (SV3-253),deployed,Wave Glider,--,1590279900,2020,05,24,00,25,00,33.10146,-117.45768,-12.2,226.21,1.96,0.00,5.64,2.39,17.90,,63.80,,,10.96,29.90,29.90,1012.56,19.64,549.78,19.40,0.0114,,,,1090.00,0.0000,0.0984,0.00,0.00,0.00,2.04,10,1590279629,13.40,1558656738,33.10146,-117.45768,2,10,-0.24,1.09,4.0,5.2,5437,354.7,1590279900,33.07960,-117.48508
2.1,CalCOFI Line 90 (SV3-253),deployed,Wave Glider,--,1590280664,2020,05,24,00,37,44,33.10538,-117.45861,-9.4,242.65,3.09,0.58,5.83,3.77,17.70,,64.80,,,11.01,29.90,29.90,1012.56,19.64,526.88,19.10,0.0114,,,,1090.00,0.0000,0.0984,0.00,0.00,0.00,2.04,10,1590280394,13.42,1558657564,33.10538,-117.45861,2,10,-0.38,1.09,3.3,5.4,5447,354.1,1590280664,33.08027,-117.38926
2.1,CalCOFI Line 90 (SV3-253),deployed,Wave Glider,--,1590281424,2020,05,24,00,50,24,33.10843,-117.45939,-2.5,224.09,2.43,0.19,5.25,2.96,17.70,,65.10,,,11.08,29.89,29.89,1012.22,28.90,539.10,18.90,0.0114,,,,1090.00,0.0000,0.0984,0.00,0.00,0.00,2.04,10,1590281219,13.32,1558658330,33.10843,-117.45939,2,11,-0.22,1.05,3.9,5.5,5543,6.5,1590281424,33.10057,-116.44996
2.1,CalCOFI Line 90 (SV3-253),deployed,Wave Glider,--,1590282189,2020,05,24,01,03,09,33.10978,-117.45968,1.1,261.89,1.92,0.19,4.86,2.35,17.90,,64.20,,,11.06,29.90,29.90,1012.56,19.64,550.83,18.90,0.0114,,,,1090.00,0.0000,0.0984,0.00,0.00,0.00,2.04,10,1590281985,13.45,1558659093,33.10978,-117.45968,2,9,-0.20,0.99,5.1,5.1,5504,1.8,1590282189,33.09708,-117.50487
2.1,CalCOFI Line 90 (SV3-253),deployed,Wave Glider,--,1590282952,2020,05,24,01,15,52,33.11137,-117.46009,4.1,274.14,1.94,0.19,4.86,2.37,18.00,,63.20,,,10.92,29.90,29.90,1012.56,19.64,560.95,19.10,0.0114,,,,1090.00,0.0000,0.0984,0.00,0.00,0.00,2.04,10,1590282748,13.31,1558659857,33.11137,-117.46009,2,10,-0.36,1.01,4.1,5.6,5541,7.8,1590282952,33.11891,-117.44705
2.1,CalCOFI Line 90 (SV3-253),deployed,Wave Glider,--,1590283706,2020,05,24,01,28,26,33.11263,-117.46040,4.6,271.32,2.08,0.00,6.61,2.54,18.20,,63.70,,,11.22,29.90,29.90,1012.56,19.64,587.76,19.30,0.0114,,,,1090.00,0.0000,0.0984,0.00,0.00,0.00,2.04,10,1590283512,13.52,1558660620,33.11263,-117.46040,2,10,-0.21,1.00,3.4,6.0,5518,12.1,1590283706,33.11891,-117.44705
2.1,CalCOFI Line 90 (SV3-253),deployed,Wave Glider,--,1590284479,2020,05,24,01,41,19,33.11417,-117.46079,4.6,294.81,3.13,0.78,6.61,3.82,17.90,,65.20,,,11.29,29.90,29.90,1012.56,19.64,553.46,19.00,0.0114,,,,1090.00,0.0000,0.0984,0.00,0.00,0.00,2.04,10,1590284275,13.45,1558661383,33.11417,-117.46079,2,11,-0.25,0.92,3.5,4.7,5501,7.5,1590284479,33.08868,-117.44705
2.1,CalCOFI Line 90 (SV3-253),deployed,Wave Glider,--,1590285242,2020,05,24,01,54,02,33.11583,-117.46118,5.7,269.95,2.84,0.19,5.64,3.46,17.80,,64.80,,,11.10,29.90,29.90,1012.56,19.64,539.64,18.60,0.0114,,,,1090.00,0.0000,0.0984,0.00,0.00,0.00,2.04,10,1590285038,13.47,1558662146,33.11583,-117.46118,2,10,-0.17,0.87,3.1,5.0,5521,11.5,1590285242,33.11891,-117.44705
2.1,CalCOFI Line 90 (SV3-253),deployed,Wave Glider,--,1590286002,2020,05,24,02,06,42,33.11745,-117.46160,10.1,270.49,2.53,0.00,5.64,3.08,17.90,,64.70,,,11.18,29.90,29.90,1012.56,19.64,552.14,18.60,0.0114,,,,1090.00,0.0000,0.0984,0.00,0.00,0.00,2.04,10,1590285801,13.46,1558662909,33.11745,-117.46160,2,9,-0.25,0.91,3.7,5.4,5703,11.0,1590286002,33.11891,-117.44705
2.1,CalCOFI Line 90 (SV3-253),deployed,Wave Glider,--,1590286767,2020,05,24,02,19,27,33.11941,-117.46206,6.1,290.03,1.71,0.19,5.25,2.09,18.00,,65.10,,,11.36,29.90,29.90,1012.56,19.64,565.96,18.50,0.0114,,,,1090.00,0.0000,0.0984,0.00,0.00,0.00,2.04,10,1590286564,13.42,1558663672,33.11941,-117.46206,2,9,-0.23,0.88,2.9,4.8,5509,10.4,1590286767,33.11891,-117.44705
2.1,CalCOFI Line 90 (SV3-253),deployed,Wave Glider,--,1590287529,2020,05,24,02,32,09,33.12116,-117.46248,4.0,289.94,2.53,0.39,6.42,3.08,17.80,,66.80,,,11.56,29.90,29.90,1012.56,19.64,544.86,18.20,0.0114,,,,1090.00,0.0000,0.0984,0.00,0.00,0.00,2.04,10,1590287327,13.41,1558664434,33.12116,-117.46248,2,10,-0.24,0.89,3.2,4.9,5547,9.9,1590287529,33.12799,-117.40899
2.1,CalCOFI Line 90 (SV3-253),deployed,Wave Glider,--,1590288285,2020,05,24,02,44,45,33.12302,-117.46292,2.6,284.77,2.39,0.19,5.25,2.92,17.50,,67.40,,,11.41,29.90,29.90,1012.56,19.64,508.01,17.80,0.0114,,,,1090.00,0.0000,0.0984,0.00,0.00,0.00,2.04,10,1590288090,13.45,1558665197,33.12302,-117.46292,2,10,-0.24,0.88,3.8,4.7,5512,10.8,1590288285,33.11891,-117.44705
2.1,CalCOFI Line 90 (SV3-253),deployed,Wave Glider,--,1590289052,2020,05,24,02,57,32,33.12489,-117.46340,-1.0,303.01,2.74,0.39,5.83,3.34,17.50,,69.40,,,11.85,29.91,29.91,1012.90,10.40,501.69,17.50,0.0114,,,,1090.00,0.0000,0.0984,0.00,0.00,0.00,2.04,10,1590288853,13.51,1558665960,33.12489,-117.46340,2,10,-0.22,0.91,3.2,4.5,5593,7.9,1590289052,33.08933,-117.35119
2.1,CalCOFI Line 90 (SV3-253),deployed,Wave Glider,--,1590289810,2020,05,24,03,10,10,33.12684,-117.46387,-7.4,312.70,2.45,0.58,4.47,2.99,17.40,,69.30,,,11.74,29.91,29.91,1012.90,10.40,488.60,17.40,0.0114,,,,1090.00,0.0000,0.0984,0.00,0.00,0.00,2.04,10,1590289615,13.49,1558666723,33.12684,-117.46387,2,11,-0.23,0.89,2.2,4.2,5525,5.6,1590289810,33.13641,-117.46682
2.1,CalCOFI Line 90 (SV3-253),deployed,Wave Glider,--,1590290574,2020,05,24,03,22,54,33.12895,-117.46437,-4.6,343.72,1.75,0.19,3.69,2.13,17.40,,69.70,,,11.82,29.91,29.91,1012.90,10.40,489.62,17.30,0.0114,,,,1090.00,0.0000,0.0984,0.00,0.00,0.00,2.04,10,1590290378,13.44,1558667486,33.12895,-117.46437,2,11,-0.33,0.90,2.6,3.9,5572,1.4,1590290574,33.13641,-117.46682
2.1,CalCOFI Line 90 (SV3-253),deployed,Wave Glider,--,1590291344,2020,05,24,03,35,44,33.13116,-117.46493,-0.9,14.92,2.10,0.00,4.47,2.56,17.40,,69.60,,,11.80,29.91,29.91,1012.90,10.40,489.36,17.30,0.0114,,,,1090.00,0.0000,0.0984,0.00,0.00,0.00,2.04,10,1590291141,13.45,1558668250,33.13116,-117.46493,2,10,-0.34,0.88,2.5,4.0,5555,4.0,1590291344,33.12731,-117.50487
2.1,CalCOFI Line 90 (SV3-253),deployed,Wave Glider,--,1590292108,2020,05,24,03,48,28,33.13321,-117.46540,-3.0,52.53,1.50,0.00,4.86,1.82,17.40,,69.70,,,11.82,29.91,29.91,1012.90,10.40,489.62,17.30,0.0114,,,,1090.00,0.0000,0.0984,0.00,0.00,0.00,2.04,10,1590291905,13.44,1558669013,33.13321,-117.46540,2,11,-0.37,0.88,2.2,4.1,5562,4.4,1590292108,33.08868,-117.44705
2.1,CalCOFI Line 90 (SV3-253),deployed,Wave Glider,--,1590292870,2020,05,24,04,01,10,33.13558,-117.46601,-3.6,46.49,1.57,0.00,4.47,1.92,17.40,,70.30,,,11.95,29.91,29.91,1012.89,10.40,491.14,17.30,0.0114,,,,1090.00,0.0000,0.0984,0.00,0.00,0.00,2.04,10,1590292668,13.43,1558669776,33.13558,-117.46601,2,10,-0.35,0.87,1.9,4.4,5579,7.8,1590292870,33.11891,-117.44705
