attachment_version,description,status,platform,moored,timestamp,year,month,day,hour,minute,second,latitude,longitude,gps_altitude,vector_averaged_wind_direction,vector_averaged_wind_speed,minimum_wind_speed_over_averaging_period,maximum_wind_speed_over_averaging_period,wind_speed_at_10m,air_temperature,water_temperature,relative_humidity,wind_chill,heat_index,dew_frost_point,barometric_pressure,altimeter_setting,sea_level_pressure,pressure_altitude,density_altitude,wxt520_internal_temperature,rain_accumulation,three_hour_rain_accumulation,six_hour_rain_accumulation,twenty_four_hour_rain_accumulation,rain_duration,rain_intensity,rain_peak_intensity,hail_accumulation,hail_duration,hail_intensity,firmware_version,reporting_interval,cf2_epoch,system_voltage_measured_at_cf2,gps_epoch,gps_latitude,gps_longitude,gps_fix_quality_indicator,number_of_satellites_used_for_gps,pitch,roll,pitch_maximum,roll_maximum,compass_relative_magnitude,average_compass_heading,sbd_timestamp,sbd_latitude,sbd_longitude
2.1,Torrey Pines Outer (CDIP Station 100),deployed,Wave Glider,--,1588969169,2020,5,8,20,19,29,32.86965,-117.25933,-2.3,261.7,10.59,7.19,17.88,12.92,19.2,,73.2,,,14.3,29.94,29.94,,-17.34,696.57,19.9,0.0323,,,,1850,0,0.1732,0,0,0,2.04,10,1588968945,13.44,1588968462,32.86965,-117.25933,2,10,0.07,1.14,4.8,6.1,4066,272.5,1588969169,32.87007,-116.69892
2.1,Torrey Pines Outer (CDIP Station 100),deployed,Wave Glider,--,1588969955,2020,5,8,20,32,35,32.87061,-117.26302,-3.2,259.33,11.39,8.16,14.39,13.89,19.3,,74.8,,,14.73,29.94,29.94,,-17.34,714.07,20,0.0335,,,,1980,0,0.1732,0,0,0,2.04,10,1588969718,13.37,1588969237,32.87061,-117.26302,2,9,0.07,1.17,4.3,5.1,4134,269.7,1588969955,32.86815,-117.27261
2.1,Torrey Pines Outer (CDIP Station 100),deployed,Wave Glider,--,1588970713,2020,5,8,20,45,13,32.87136,-117.26644,-4.5,265.15,12.34,8.36,15.16,15.05,19.2,,75.3,,,14.74,29.94,29.94,,-17.34,702.53,20,0.0343,,,,2260,0.0039,0.1732,0,0,0,2.04,10,1588970493,13.42,1588970012,32.87136,-117.26644,2,9,0.25,1.17,4.5,5.4,4098,277.4,1588970713,32.87712,-117.23459
2.1,Torrey Pines Outer (CDIP Station 100),deployed,Wave Glider,--,1588971497,2020,5,8,20,58,17,32.87233,-117.26926,-8.5,267.53,12.25,0,16.14,14.93,19.2,,75.4,,,14.76,29.94,29.94,,-17.34,702.82,20,0.0362,,,,2490,0.0118,0.1732,0,0,0,2.04,10,1588971268,13.46,1588970787,32.87233,-117.26926,2,7,0.25,1.13,5.1,5.2,4099,281.7,1588971497,32.91587,-117.29221
2.1,Torrey Pines Outer (CDIP Station 100),deployed,Wave Glider,--,1588972269,2020,5,8,21,11,9,32.87381,-117.27261,-8.9,268.45,11.74,9.14,15.75,14.31,19.2,,75.2,,,14.72,29.94,29.94,,-17.34,702.25,19.9,0.0386,,,,2720,0,0.1732,0,0,0,2.04,10,1588972043,13.41,1588971562,32.87381,-117.27261,2,7,0.25,1.13,5.7,5,4138,281.8,1588972269,32.86815,-117.27261
2.1,Torrey Pines Outer (CDIP Station 100),deployed,Wave Glider,--,1588973042,2020,5,8,21,24,2,32.87513,-117.27581,-4.9,270.64,10.89,0,13.61,13.27,19.2,,75.4,,,14.76,29.94,29.94,,-17.34,702.82,19.9,0.0402,,,,2880,0,0.1732,0,0,0,2.04,10,1588972817,13.46,1588972337,32.87513,-117.27581,2,8,0.35,1.11,5.2,5.1,4229,284.9,1588973042,32.86815,-117.27261
2.1,Torrey Pines Outer (CDIP Station 100),deployed,Wave Glider,--,1588973820,2020,5,8,21,37,0,32.87647,-117.27897,-0.4,273.67,11.88,8.55,15.55,14.48,19.2,,74.7,,,14.62,29.94,29.94,,-17.34,700.83,19.9,0.0409,,,,3030,0,0.1732,0,0,0,2.04,10,1588973592,13.44,1588973112,32.87647,-117.27897,2,9,0.28,1.1,5.3,5,4189,287.6,1588973820,32.86815,-117.27261
2.1,Torrey Pines Outer (CDIP Station 100),deployed,Wave Glider,--,1588974707,2020,5,8,21,51,47,32.87775,-117.2821,0.7,276.32,11.9,7.19,16.33,14.5,19.2,,74.7,,,14.62,29.94,29.94,,-17.34,700.83,19.9,0.0433,,,,3270,0,0.1732,0,0,0,2.04,10,1588974367,13.47,1588973887,32.87775,-117.2821,2,9,0.39,1.13,6.3,5.4,4221,290.3,1588974707,32.86815,-117.27261
2.1,Torrey Pines Outer (CDIP Station 100),deployed,Wave Glider,--,1588975481,2020,5,8,22,4,41,32.87881,-117.28546,-2.8,280.36,10.26,6.42,12.64,12.51,19.2,,73.5,,,14.37,29.94,29.94,,-17.34,697.42,19.9,0.0457,,,,3460,0.0276,0.1732,0,0,0,2.04,10,1588975142,13.47,1588974782,32.87881,-117.28546,2,9,0.27,1.05,6.4,6,4281,294.5,1588975481,32.86815,-117.27261
2.1,Torrey Pines Outer (CDIP Station 100),deployed,Wave Glider,--,1588976263,2020,5,8,22,17,43,32.87979,-117.28865,-2.4,287.44,10.05,6.8,12.25,12.25,19.1,,74.4,,,14.46,29.94,29.94,,-17.34,687.03,19.9,0.048,,,,3700,0.0039,0.1732,0,0,0,2.04,10,1588976037,13.46,1588975557,32.87979,-117.28865,2,9,0.33,1.12,6.1,5.3,4302,302.9,1588976263,32.91683,-117.10087
2.1,Torrey Pines Outer (CDIP Station 100),deployed,Wave Glider,--,1588977030,2020,5,8,22,30,30,32.88068,-117.29154,0.2,286.2,8.88,6.22,,10.83,19.1,,73.6,,,14.29,29.93,29.93,,-8.09,696.2,19.9,0.0488,,,,3900,0,0.1732,0,0,0,2.04,10,1588976812,13.47,1588976332,32.88068,-117.29154,2,9,0.38,1.13,6.4,5.3,4292,303.1,1588977030,32.87657,-117.33022
2.1,Torrey Pines Outer (CDIP Station 100),deployed,Wave Glider,--,1588977805,2020,5,8,22,43,25,32.88167,-117.29489,3.8,287.93,8.11,5.64,11.47,9.88,19.2,,74.4,,,14.55,29.92,29.92,,1.15,722.83,19.9,0.0512,,,,4140,0,0.1732,0,0,0,2.04,10,1588977587,13.47,1588977107,32.88167,-117.29489,2,8,0.19,1.17,5.9,8.6,4375,304.2,1588977805,32.91587,-117.29221
2.1,Torrey Pines Outer (CDIP Station 100),deployed,Wave Glider,--,1588978585,2020,5,8,22,56,25,32.88275,-117.29826,2.1,292.6,6.75,4.08,9.14,8.22,19.1,,73,,,14.16,29.91,29.91,,10.4,717.37,19.9,0.0531,,,,4330,0.0394,0.1732,0,0,0,2.04,10,1588978362,13.43,1588977882,32.88275,-117.29826,2,8,0.24,1.13,6.1,5.5,4313,308.5,1588978585,32.88556,-117.29221
2.1,Torrey Pines Outer (CDIP Station 100),deployed,Wave Glider,--,1588979363,2020,5,8,23,9,23,32.88391,-117.30195,-0.2,295.7,7.25,4.86,,8.84,19.1,,72.7,,,14.1,29.91,29.91,,10.4,716.52,19.9,0.0547,,,,4470,0,0.1732,0,0,0,2.04,10,1588979137,13.46,1588978656,32.88391,-117.30195,2,8,0.16,1.11,5.9,7.2,4367,311.8,1588979363,32.91587,-117.29221
2.1,Torrey Pines Outer (CDIP Station 100),deployed,Wave Glider,--,1588980137,2020,5,8,23,22,17,32.88523,-117.30599,1,295.2,8.48,5.83,10.69,10.33,19,,73.5,,,14.17,29.9,29.9,,19.64,717.29,19.8,0.0555,,,,4620,0.0039,0.1732,0,0,0,2.04,10,1588979912,13.27,1588979431,32.88523,-117.30599,2,9,0.22,1.12,6.3,6.5,4456,310.9,1588980137,32.86815,-117.27261
2.1,Torrey Pines Outer (CDIP Station 100),deployed,Wave Glider,--,1588980911,2020,5,8,23,35,11,32.8866,-117.31045,3.5,304.18,7.58,5.25,9.53,9.24,19.1,,73.6,,,14.29,29.89,29.89,,28.9,741.94,19.8,0.0575,,,,4790,0,0.1732,0,0,0,2.04,10,1588980687,13.41,1588980206,32.8866,-117.31045,2,8,0.17,1.08,6.3,5.9,4586,320.4,1588980911,32.86815,-117.27261
2.1,Torrey Pines Outer (CDIP Station 100),deployed,Wave Glider,--,1588981689,2020,5,8,23,48,9,32.88802,-117.31488,5.2,302.79,7.46,4.86,10.3,9.1,19.1,,73.8,,,14.33,29.89,29.89,,28.9,742.5,19.8,0.0594,,,,5010,0.0079,0.1732,0,0,0,2.04,10,1588981461,13.42,1588980981,32.88802,-117.31488,2,9,0.27,1.12,6,6.6,4527,318.7,1588981689,32.87657,-117.33022
2.1,Torrey Pines Outer (CDIP Station 100),deployed,Wave Glider,--,1588982459,2020,5,9,0,0,59,32.88958,-117.31981,3.1,303.24,6.94,5.05,9.14,8.46,19.1,,72.7,,,14.1,29.89,29.89,,28.9,739.39,19.9,0.0606,,,,5210,0.0039,0.1732,0,0,0,2.04,10,1588982236,13.48,1588981756,32.88958,-117.31981,2,9,0.22,1.12,7.3,6.7,4486,318.5,1588982459,32.91587,-117.29221
2.1,Torrey Pines Outer (CDIP Station 100),deployed,Wave Glider,--,1588983230,2020,5,9,0,13,50,32.89112,-117.32464,0.8,296.62,6.73,4.08,9.33,8.2,19.2,,72.7,,,14.2,29.89,29.89,,28.9,752.3,19.9,0.0614,,,,5310,0,0.1732,0,0,0,2.04,10,1588983011,13.41,1588982531,32.89112,-117.32464,2,8,0.08,1.11,6.1,6.2,4446,311,1588983230,32.87657,-117.33022
2.1,Torrey Pines Outer (CDIP Station 100),deployed,Wave Glider,--,1588984003,2020,5,9,0,26,43,32.89249,-117.32907,-10.2,290.47,7.31,4.86,10.3,8.91,19.2,,74.7,,,14.62,29.89,29.89,,28.9,757.99,19.9,0.0626,,,,5480,0,0.1732,0,0,0,2.04,10,1588983786,13.42,1588983305,32.89249,-117.32907,2,7,0.04,1.12,4.9,5.4,4348,305.6,1588984003,32.90687,-117.33022
2.1,Torrey Pines Outer (CDIP Station 100),deployed,Wave Glider,--,1588984787,2020,5,9,0,39,47,32.89396,-117.33376,-5.2,286.84,5.95,3.11,8.55,7.25,19.3,,73.6,,,14.48,29.89,29.89,,28.9,767.79,19.9,0.0634,,,,5730,0.0039,0.1732,0,0,0,2.04,10,1588984560,13.45,1588984080,32.89396,-117.33376,2,8,-0.02,1.08,4.1,6,4260,299.9,1588984787,32.9213,-117.73263
2.1,Torrey Pines Outer (CDIP Station 100),deployed,Wave Glider,--,1588985562,2020,5,9,0,52,42,32.89521,-117.33758,-4.2,286.56,5.58,2.92,6.8,6.8,19.3,,72.7,,,14.29,29.88,29.88,,38.15,776.66,20,0.0646,,,,5870,0,0.1732,0,0,0,2.04,10,1588985335,13.38,1588984855,32.89521,-117.33758,2,10,-0.23,1.14,4.2,6.5,4336,298.4,1588985562,32.90687,-117.33022
2.1,Torrey Pines Outer (CDIP Station 100),deployed,Wave Glider,--,1588986329,2020,5,9,1,5,29,32.89631,-117.34097,-5.5,282.33,4.96,0,7,6.04,19.3,,72.3,,,14.21,29.88,29.88,,38.15,775.51,20,0.0657,,,,5990,0,0.1732,0,0,0,2.04,10,1588986110,13.51,1588985630,32.89631,-117.34097,2,10,-0.33,1.12,3.3,5.2,4246,290.6,1588986329,32.91527,-117.38788
2.1,Torrey Pines Outer (CDIP Station 100),deployed,Wave Glider,--,1588987103,2020,5,9,1,18,23,32.89733,-117.34414,-8.4,286.75,5.27,3.3,7.39,6.42,19.3,,73.5,,,14.46,29.88,29.88,,38.15,778.95,19.9,0.0669,,,,6050,0,0.1732,0,0,0,2.04,10,1588986885,13.43,1588986404,32.89733,-117.34414,2,10,-0.31,1.13,4.1,5.3,4284,294.5,1588987103,32.87657,-117.33022
2.1,Torrey Pines Outer (CDIP Station 100),deployed,Wave Glider,--,1588987879,2020,5,9,1,31,19,32.89832,-117.34751,-4.5,290.55,4.67,2.92,6.8,5.69,19.3,,73.1,,,14.38,29.88,29.88,,38.15,777.8,19.9,0.0669,,,,6070,0,0.1732,0,0,0,2.04,10,1588987660,13.44,1588987179,32.89832,-117.34751,2,10,-0.32,1.15,3.1,5.4,4314,296.5,1588987879,32.90687,-117.33022
2.1,Torrey Pines Outer (CDIP Station 100),deployed,Wave Glider,--,1588988661,2020,5,9,1,44,21,32.89948,-117.35109,-4,296.68,3.87,1.56,6.61,4.72,19.3,,72.4,,,14.23,29.88,29.88,,38.15,775.8,19.9,0.0669,,,,6130,0,0.1732,0,0,0,2.04,10,1588988435,13.46,1588987954,32.89948,-117.35109,2,10,-0.25,1.12,3.6,4.7,4320,303.1,1588988661,32.90687,-117.33022
2.1,Torrey Pines Outer (CDIP Station 100),deployed,Wave Glider,--,1588989491,2020,5,9,1,58,11,32.90076,-117.35513,-1.2,295.02,3.85,1.75,6.03,4.69,19.3,,71.9,,,14.12,29.87,29.87,,47.41,785.81,19.9,0.0669,,,,6130,0,0.1732,0,0,0,2.04,10,1588989209,13.55,1588988729,32.90076,-117.35513,2,11,-0.39,1.02,2.6,4.6,4363,298.7,1588989491,32.87657,-117.33022
2.1,Torrey Pines Outer (CDIP Station 100),deployed,Wave Glider,--,1588990269,2020,5,9,2,11,9,32.90206,-117.35931,1,306.7,2.45,0.19,4.67,2.99,19.2,,72.3,,,14.11,29.87,29.87,,47.41,774.05,19.6,0.0669,,,,6140,0,0.1732,0,0,0,2.04,10,1588989984,13.4,1588989564,32.90206,-117.35931,2,9,-0.26,1.06,2.9,5.3,4514,314.5,1588990269,32.91648,-115.95269
2.1,Torrey Pines Outer (CDIP Station 100),deployed,Wave Glider,--,1588991046,2020,5,9,2,24,6,32.90332,-117.36333,1,310.84,2.41,0.39,4.28,2.94,19.1,,72.8,,,14.12,29.87,29.87,,47.41,762.56,19.4,0.0677,,,,6170,0,0.1732,0,0,0,2.04,10,1588990819,13.49,1588990339,32.90332,-117.36333,2,9,-0.2,1.03,3.7,5.1,4528,316,1588991046,32.90664,-118.24861
2.1,Torrey Pines Outer (CDIP Station 100),deployed,Wave Glider,--,1588991822,2020,5,9,2,37,2,32.90473,-117.36769,3.4,310.98,1.96,0.39,3.89,2.39,18.9,,73.5,,,14.08,29.87,29.87,,47.41,738.69,19.1,0.0677,,,,6190,0,0.1732,0,0,0,2.04,10,1588991594,13.43,1588991115,32.90473,-117.36769,2,11,-0.32,1.09,3.5,5.2,4540,315.2,1588991822,32.91527,-117.38788
2.1,Torrey Pines Outer (CDIP Station 100),deployed,Wave Glider,--,1588992591,2020,5,9,2,49,51,32.90612,-117.37223,5,314.63,2.86,0.97,5.25,3.48,18.8,,74.7,,,14.23,29.87,29.87,,47.41,729.11,18.9,0.0677,,,,6210,0,0.1732,0,0,0,2.04,10,1588992370,13.44,1588991890,32.90612,-117.37223,2,10,-0.19,1.08,6,4.8,4602,319.2,1588992591,32.90687,-117.33022
2.1,Torrey Pines Outer (CDIP Station 100),deployed,Wave Glider,--,1588993370,2020,5,9,3,2,50,32.90753,-117.37651,5.5,307.63,3.5,1.17,6.22,4.27,18.9,,75.3,,,14.45,29.87,29.87,,47.41,743.72,18.8,0.0677,,,,6210,0,0.1732,0,0,0,2.04,10,1588993145,13.41,1588992665,32.90753,-117.37651,2,10,-0.31,1.02,3.7,5.4,4540,317.3,1588993370,32.91527,-117.38788
2.1,Torrey Pines Outer (CDIP Station 100),deployed,Wave Glider,--,1588994140,2020,5,9,3,15,40,32.90905,-117.38128,6.4,315.52,4.7,1.56,6.22,5.74,18.8,,75.3,,,14.35,29.87,29.87,,47.41,730.77,18.7,0.0677,,,,6210,0,0.1732,0,0,0,2.04,10,1588993920,13.38,1588993440,32.90905,-117.38128,2,9,-0.18,1.08,3.3,6,4681,324.5,1588994140,32.90687,-117.33022
2.1,Torrey Pines Outer (CDIP Station 100),deployed,Wave Glider,--,1588994918,2020,5,9,3,28,38,32.91045,-117.38571,4.3,315.77,4.49,1.36,6.03,5.47,18.8,,76.2,,,14.54,29.88,29.88,,38.15,721.82,18.8,0.0677,,,,6210,0,0.1732,0,0,0,2.04,10,1588994695,13.49,1588994215,32.91045,-117.38571,2,10,-0.13,1.04,3.3,5.6,4595,323.9,1588994918,32.91527,-117.38788
2.1,Torrey Pines Outer (CDIP Station 100),deployed,Wave Glider,--,1588995752,2020,5,9,3,42,32,32.91179,-117.38997,1.8,312.31,4.59,0,7,5.59,18.7,,76.5,,,14.5,29.89,29.89,,28.9,698.24,18.8,0.0681,,,,6250,0,0.1732,0,0,0,2.04,10,1588995470,13.43,1588994989,32.91179,-117.38997,2,10,-0.21,1.06,3.2,5.5,4697,323.4,1588995752,32.90687,-117.33022
2.1,Torrey Pines Outer (CDIP Station 100),deployed,Wave Glider,--,1588996529,2020,5,9,3,55,29,32.91336,-117.3949,-1.9,313.76,4.1,1.17,6.22,5,18.6,,76.8,,,14.47,29.89,29.89,,28.9,686.1,18.7,0.0689,,,,6280,0,0.1732,0,0,0,2.04,10,1588996245,13.31,1588995824,32.91336,-117.3949,2,10,-0.19,1.09,3.5,5.1,4659,323.9,1588996529,32.90625,-117.42586
2.1,Torrey Pines Outer (CDIP Station 100),deployed,Wave Glider,--,1588997302,2020,5,9,4,8,22,32.91483,-117.39958,0.9,300.11,4.22,2.14,6.22,5.14,18.6,,77.2,,,14.55,29.89,29.89,,28.9,687.19,18.6,0.0689,,,,6310,0,0.1732,0,0,0,2.04,10,1588997079,13.5,1588996599,32.91483,-117.39958,2,11,-0.18,1.13,3.2,5.5,4529,310,1588997302,32.91527,-117.38788
2.1,Torrey Pines Outer (CDIP Station 100),deployed,Wave Glider,--,1588998136,2020,5,9,4,22,16,32.91533,-117.4055,1.8,302.68,4.2,2.53,,5.12,18.5,,77.8,,,14.57,29.89,29.89,,28.9,675.85,18.5,0.0705,,,,6390,0,0.1732,0,0,0,2.04,10,1588997854,13.45,1588997374,32.91533,-117.4055,2,10,-0.15,1.09,4.8,4.6,4466,309.6,1588998136,32.94245,-117.7705
2.1,Torrey Pines Outer (CDIP Station 100),deployed,Wave Glider,--,1588998919,2020,5,9,4,35,19,32.91447,-117.41084,-1.8,166.38,3.36,0,5.64,4.1,18.4,,78.5,,,14.61,29.89,29.89,,28.9,664.76,18.5,0.0705,,,,6430,0,0.1732,0,0,0,2.04,10,1588998629,13.37,1588998209,32.91447,-117.41084,2,10,-1.04,1.05,2.6,5.6,4781,152.2,1588998919,32.91527,-117.38788
2.1,Torrey Pines Outer (CDIP Station 100),deployed,Wave Glider,--,1588999684,2020,5,9,4,48,4,32.91075,-117.41087,-0.4,174.13,2.97,0.97,5.05,3.63,18.5,,78.9,,,14.79,29.9,29.9,,19.64,667.4,18.5,0.0705,,,,6430,0,0.1732,0,0,0,2.04,10,1588999464,13.43,1588998984,32.91075,-117.41087,2,11,-0.93,0.99,2.8,5.1,4811,158.2,1588999684,32.87595,-117.42586
2.1,Torrey Pines Outer (CDIP Station 100),deployed,Wave Glider,--,1589000462,2020,5,9,5,1,2,32.90708,-117.41016,-1,44,2.92,0.39,4.86,3.56,18.5,,79,,,14.81,29.9,29.9,,19.64,667.67,18.5,0.0705,,,,6430,0,0.1732,0,0,0,2.04,10,1589000239,13.43,1588999759,32.90708,-117.41016,2,10,-0.69,0.94,2.8,5.1,5620,59.8,1589000462,32.91527,-117.38788
2.1,Torrey Pines Outer (CDIP Station 100),deployed,Wave Glider,--,1589001225,2020,5,9,5,13,45,32.907,-117.40692,0.1,47.04,2.76,0.78,4.28,3.37,18.6,,78.5,,,14.8,29.91,29.91,,10.4,667.87,18.6,0.0705,,,,6430,0,0.1732,0,0,0,2.04,10,1589001014,13.39,1589000530,32.907,-117.40692,2,9,-0.85,0.85,2.4,5.4,5597,57.9,1589001225,32.86757,-117.36821
2.1,Torrey Pines Outer (CDIP Station 100),deployed,Wave Glider,--,1589002000,2020,5,9,5,26,40,32.90695,-117.40376,-4.3,45.8,4.12,2.14,5.25,5.02,18.6,,78.7,,,14.84,29.91,29.91,,10.4,668.42,18.7,0.0705,,,,6430,0,0.1732,0,0,0,2.04,10,1589001785,13.49,1589001301,32.90695,-117.40376,2,10,-0.71,0.85,3,5.7,5605,54.7,1589002000,32.91527,-117.38788
2.1,Torrey Pines Outer (CDIP Station 100),deployed,Wave Glider,--,1589002772,2020,5,9,5,39,32,32.90718,-117.40096,-3.3,355.39,3.79,1.56,5.83,4.62,18.6,,77.6,,,14.63,29.91,29.91,,10.4,665.4,18.8,0.0705,,,,6440,0,0.1732,0,0,0,2.04,10,1589002556,13.43,1589002072,32.90718,-117.40096,2,8,-0.5,0.84,2.8,4.8,5446,9.9,1589002772,32.91527,-117.38788
2.1,Torrey Pines Outer (CDIP Station 100),deployed,Wave Glider,--,1589003604,2020,5,9,5,53,24,32.90977,-117.4009,-5,355.79,3.77,0,5.64,4.6,18.6,,78.1,,,14.73,29.91,29.91,,10.4,666.77,18.8,0.0709,,,,6460,0,0.1732,0,0,0,2.04,10,1589003327,13.4,1589002841,32.90977,-117.4009,2,10,-0.4,0.87,3.1,5.2,5380,11.4,1589003604,32.90625,-117.42586
2.1,Torrey Pines Outer (CDIP Station 100),deployed,Wave Glider,--,1589004365,2020,5,9,6,6,5,32.91179,-117.40081,-3.6,0.32,3.17,0.78,6.22,3.86,18.6,,77.4,,,14.59,29.91,29.91,,10.4,664.85,18.8,0.0709,,,,6470,0,0.1732,0,0,0,2.04,10,1589004097,13.41,1589003671,32.91179,-117.40081,2,10,-0.34,0.88,2.3,5.8,5492,15.1,1589004365,32.89787,-117.36821
2.1,Torrey Pines Outer (CDIP Station 100),deployed,Wave Glider,--,1589005145,2020,5,9,6,19,5,32.91345,-117.40076,0.9,8,4.57,1.94,7.78,5.57,18.5,,76.9,,,14.39,29.91,29.91,,10.4,650.51,18.8,0.0713,,,,6480,0,0.1732,0,0,0,2.04,10,1589004927,13.41,1589004441,32.91345,-117.40076,2,10,-0.41,0.87,2.5,5.7,5438,15.1,1589005145,32.91527,-117.38788
2.1,Torrey Pines Outer (CDIP Station 100),deployed,Wave Glider,--,1589005910,2020,5,9,6,31,50,32.91501,-117.40083,-1.4,297.54,4.37,0.97,7.58,5.33,18.6,,76.6,,,14.42,29.91,29.91,,10.4,662.66,18.8,0.0713,,,,6480,0,0.1732,0,0,0,2.04,10,1589005696,13.4,1589005211,32.91501,-117.40083,2,10,-0.27,1,4.5,6.2,4580,313.1,1589005910,32.89844,-117.27261
2.1,Torrey Pines Outer (CDIP Station 100),deployed,Wave Glider,--,1589006686,2020,5,9,6,44,46,32.9153,-117.4051,-2.7,315.36,3.71,0,6.22,4.53,18.6,,75.8,,,14.26,29.91,29.91,,10.4,660.47,18.8,0.0717,,,,6520,0,0.1732,0,0,0,2.04,10,1589006466,13.42,1589005986,32.9153,-117.4051,2,11,-0.18,1.03,4.3,4.8,4856,323.9,1589006686,32.91527,-117.38788
2.1,Torrey Pines Outer (CDIP Station 100),deployed,Wave Glider,--,1589007469,2020,5,9,6,57,49,32.91532,-117.40861,-3.4,312.53,4.59,0,7.97,5.59,18.6,,75.8,,,14.26,29.92,29.92,,1.15,649.03,18.7,0.0728,,,,6530,0,0.1732,0,0,0,2.04,10,1589007241,13.4,1589006761,32.91532,-117.40861,2,11,-0.32,1.02,4.4,4.9,4899,309.6,1589007469,32.91527,-117.38788
2.1,Torrey Pines Outer (CDIP Station 100),deployed,Wave Glider,--,1589008242,2020,5,9,7,10,42,32.91319,-117.41082,-0.7,146.69,2.74,0.78,4.67,3.34,18.5,,75.5,,,14.1,29.92,29.92,,1.15,635.26,18.7,0.0728,,,,6560,0,0.1732,0,0,0,2.04,10,1589008016,13.39,1589007536,32.91319,-117.41082,2,9,-1.11,0.96,2.7,5.4,5087,136.1,1589008242,32.91527,-117.38788
2.1,Torrey Pines Outer (CDIP Station 100),deployed,Wave Glider,--,1589009016,2020,5,9,7,23,36,32.90937,-117.41089,1.4,129.05,4.84,2.33,7.39,5.9,18.7,,76.3,,,14.46,29.92,29.92,,1.15,663.37,18.8,0.0728,,,,6560,0,0.1732,0,0,0,2.04,10,1589008791,13.36,1589008311,32.90937,-117.41089,2,10,-1.06,0.98,1.9,4.4,5584,118.3,1589009016,32.91527,-117.38788
2.1,Torrey Pines Outer (CDIP Station 100),deployed,Wave Glider,--,1589009787,2020,5,9,7,36,27,32.90693,-117.40874,-2.5,78.11,5.31,0,7.78,6.47,18.7,,76.3,,,14.46,29.92,29.92,,1.15,663.37,18.8,0.0728,,,,6560,0,0.1732,0,0,0,2.04,10,1589009566,13.45,1589009084,32.90693,-117.40874,2,9,-0.98,0.9,1.8,4.4,5556,62.5,1589009787,32.87595,-117.42586
2.1,Torrey Pines Outer (CDIP Station 100),deployed,Wave Glider,--,1589010550,2020,5,9,7,49,10,32.90691,-117.40563,1.9,72.45,2.78,0.39,5.05,3.39,18.5,,73.8,,,13.75,29.92,29.92,,1.15,630.63,18.7,0.0728,,,,6560,0,0.1732,0,0,0,2.04,10,1589010339,13.44,1589009855,32.90691,-117.40563,2,10,-1,0.94,3.2,3.9,5560,60.3,1589010550,32.90625,-117.42586
2.1,Torrey Pines Outer (CDIP Station 100),deployed,Wave Glider,--,1589011327,2020,5,9,8,2,7,32.90686,-117.40236,2.1,42.16,1.98,0.58,3.5,2.42,18.6,,74.7,,,14.04,29.91,29.91,1012.89,10.4,657.46,18.8,0.0728,,,,6560,0,0.1732,0,0,0,2.04,10,1589011110,13.44,1589010625,32.90686,-117.40236,2,11,-0.73,0.9,1.8,4.4,5514,39.6,1589011327,32.91527,-117.38788
2.1,Torrey Pines Outer (CDIP Station 100),deployed,Wave Glider,--,1589012094,2020,5,9,8,14,54,32.90781,-117.40096,3.6,25.75,3.87,1.94,5.44,4.72,18.6,,75.8,,,14.26,29.91,29.91,1012.89,10.4,660.47,18.8,0.0728,,,,6560,0,0.1732,0,0,0,2.04,10,1589011881,13.46,1589011396,32.90781,-117.40096,2,10,-0.62,0.87,2.5,5.3,5520,21.3,1589012094,32.90625,-117.42586
2.1,Torrey Pines Outer (CDIP Station 100),deployed,Wave Glider,--,1589012868,2020,5,9,8,27,48,32.90943,-117.40094,3.8,28.04,4.12,1.56,6.03,5.02,18.4,,75.6,,,14.03,29.91,29.91,1012.89,10.4,634.02,18.7,0.0728,,,,6560,0,0.1732,0,0,0,2.04,10,1589012652,13.44,1589012166,32.90943,-117.40094,2,10,-0.73,0.87,1.9,5.3,5882,20.7,1589012868,32.86757,-117.36821
2.1,Torrey Pines Outer (CDIP Station 100),deployed,Wave Glider,--,1589013635,2020,5,9,8,40,35,32.91087,-117.40083,3.8,30.82,1.96,0,8.55,2.39,18.4,,73.6,,,13.62,29.91,29.91,1012.89,10.4,628.61,18.7,0.0728,,,,6560,0,0.1732,0,0,0,2.04,10,1589013422,13.46,1589012936,32.91087,-117.40083,2,9,-0.77,0.91,2.1,6.1,5426,20.7,1589013635,32.93016,-118.95897
2.1,Torrey Pines Outer (CDIP Station 100),deployed,Wave Glider,--,1589014409,2020,5,9,8,53,29,32.91262,-117.40081,4.4,31.78,4.24,0,8.55,5.17,18.5,,74.6,,,13.92,29.9,29.9,1012.56,19.64,655.69,18.7,0.0728,,,,6560,0,0.1732,0,0,0,2.04,10,1589014192,13.4,1589013706,32.91262,-117.40081,2,10,-0.99,0.96,1.2,5.4,5531,15.7,1589014409,32.91527,-117.38788
2.1,Torrey Pines Outer (CDIP Station 100),deployed,Wave Glider,--,1589015181,2020,5,9,9,6,21,32.91502,-117.4012,5.7,346.23,5.6,1.94,,6.83,18.5,,76.6,,,14.33,29.9,29.9,1012.56,19.64,661.13,18.6,0.0728,,,,6560,0,0.1732,0,0,0,2.04,10,1589014962,13.47,1589014476,32.91502,-117.4012,2,9,-0.48,0.91,2.7,5.3,5035,354.1,1589015181,32.89722,-117.46381
2.1,Torrey Pines Outer (CDIP Station 100),deployed,Wave Glider,--,1589015952,2020,5,9,9,19,12,32.91518,-117.40379,5.4,350.01,4.98,1.56,6.42,6.07,18.3,,74.9,,,13.79,29.9,29.9,1012.56,19.64,630.63,18.6,0.0728,,,,6560,0,0.1732,0,0,0,2.04,10,1589015731,13.42,1589015251,32.91518,-117.40379,2,11,-0.49,0.94,3.4,5.1,5040,348.8,1589015952,32.91527,-117.38788
2.1,Torrey Pines Outer (CDIP Station 100),deployed,Wave Glider,--,1589016732,2020,5,9,9,32,12,32.91518,-117.40671,5.9,1.44,3.93,1.56,8.75,4.79,18.3,,76.1,,,14.03,29.9,29.9,1012.56,19.64,633.86,18.5,0.0728,,,,6560,0,0.1732,0,0,0,2.04,10,1589016506,13.4,1589016026,32.91518,-117.40671,2,10,-0.52,0.93,3.3,5.5,5117,352.8,1589016732,32.94556,-117.38788
2.1,Torrey Pines Outer (CDIP Station 100),deployed,Wave Glider,--,1589017508,2020,5,9,9,45,8,32.91527,-117.40957,2.3,121.45,5,2.72,7.97,6.09,18.3,,77.3,,,14.27,29.89,29.89,1012.22,28.9,648.53,18.5,0.0728,,,,6590,0,0.1732,0,0,0,2.04,10,1589017281,13.44,1589016801,32.91527,-117.40957,2,10,-0.7,1,3.4,4.1,4858,103.2,1589017508,32.87595,-117.42586
2.1,Torrey Pines Outer (CDIP Station 100),deployed,Wave Glider,--,1589018283,2020,5,9,9,58,3,32.91179,-117.41087,3.4,145.08,5.44,3.11,8.55,6.64,18.2,,75.2,,,13.75,29.89,29.89,1012.22,28.9,629.94,18.5,0.0736,,,,6640,0,0.1732,0,0,0,2.04,10,1589018056,13.43,1589017576,32.91179,-117.41087,2,9,-0.93,1.13,1.8,4.1,5056,138.8,1589018283,32.91527,-117.38788
2.1,Torrey Pines Outer (CDIP Station 100),deployed,Wave Glider,--,1589019053,2020,5,9,10,10,53,32.90705,-117.41058,3.1,76.66,6.84,3.11,8.55,8.34,18.1,,75.5,,,13.72,29.89,29.89,1012.22,28.9,617.81,18.4,0.0736,,,,6650,0,0.1732,0,0,0,2.04,10,1589018831,13.43,1589018351,32.90705,-117.41058,2,9,-1.04,1,2.5,4.8,5617,62.1,1589019053,32.91527,-117.38788
2.1,Torrey Pines Outer (CDIP Station 100),deployed,Wave Glider,--,1589019825,2020,5,9,10,23,45,32.90677,-117.4074,-0.9,74.1,4.98,2.72,7.19,6.07,18.1,,76.4,,,13.9,29.89,29.89,1012.22,28.9,620.2,18.3,0.0736,,,,6650,0,0.1732,0,0,0,2.04,10,1589019606,13.41,1589019122,32.90677,-117.4074,2,10,-1.04,0.98,3.1,4.7,5615,59.1,1589019825,32.94556,-117.38788
2.1,Torrey Pines Outer (CDIP Station 100),deployed,Wave Glider,--,1589020596,2020,5,9,10,36,36,32.90653,-117.40531,-4.5,66.82,3.87,2.14,5.64,4.72,18,,75.8,,,13.68,29.89,29.89,1012.22,28.9,605.66,18.3,0.0736,,,,6660,0,0.1732,0,0,0,2.04,10,1589020377,13.4,1589019893,32.90653,-117.40531,2,11,-0.93,0.89,2.1,5.3,5631,57.2,1589020596,32.90625,-117.42586
2.1,Torrey Pines Outer (CDIP Station 100),deployed,Wave Glider,--,1589021366,2020,5,9,10,49,26,32.90648,-117.40321,-3.1,55.58,2.86,0.58,4.67,3.48,18,,75.4,,,13.6,29.9,29.9,1012.56,19.64,593.15,18.3,0.0736,,,,6660,0,0.1732,0,0,0,2.04,10,1589021148,13.45,1589020664,32.90648,-117.40321,2,8,-0.8,0.9,2,4.9,5647,52.5,1589021366,32.91181,-118.49779
2.1,Torrey Pines Outer (CDIP Station 100),deployed,Wave Glider,--,1589022135,2020,5,9,11,2,15,32.90653,-117.40143,0.5,9.45,2.43,0.19,4.67,2.96,18,,75.4,,,13.6,29.89,29.89,1012.22,28.9,604.6,18.3,0.0736,,,,6660,0,0.1732,0,0,0,2.04,10,1589021919,13.43,1589021434,32.90653,-117.40143,2,9,-0.63,0.94,2.1,5.5,5438,27.1,1589022135,32.87595,-117.42586
2.1,Torrey Pines Outer (CDIP Station 100),deployed,Wave Glider,--,1589022898,2020,5,9,11,14,58,32.90869,-117.40093,0.1,3.62,3.3,0.78,4.86,4.03,18.1,,75,,,13.62,29.9,29.9,1012.56,19.64,605.03,18.3,0.0736,,,,6670,0,0.1732,0,0,0,2.04,10,1589022690,13.45,1589022204,32.90869,-117.40093,2,9,-0.63,0.97,1.9,4.6,5524,19.1,1589022898,32.89787,-117.36821
2.1,Torrey Pines Outer (CDIP Station 100),deployed,Wave Glider,--,1589023670,2020,5,9,11,27,50,32.91161,-117.40081,-4.5,5.52,2.45,0.19,5.83,2.99,18.1,,75.2,,,13.66,29.9,29.9,1012.56,19.64,605.56,18.3,0.0736,,,,6670,0,0.1732,0,0,0,2.04,10,1589023460,13.39,1589022974,32.91161,-117.40081,2,10,-0.6,0.97,2.7,5.6,5400,18.9,1589023670,32.91527,-117.38788
2.1,Torrey Pines Outer (CDIP Station 100),deployed,Wave Glider,--,1589024451,2020,5,9,11,40,51,32.91462,-117.40073,-1.7,326.06,1.81,0.39,4.47,2.2,18,,74.3,,,13.38,29.9,29.9,1012.56,19.64,590.25,18.3,0.0736,,,,6670,0,0.1732,0,0,0,2.04,10,1589024229,13.36,1589023744,32.91462,-117.40073,2,10,-0.46,0.96,2.2,4,4905,335.4,1589024451,32.86757,-117.36821
2.1,Torrey Pines Outer (CDIP Station 100),deployed,Wave Glider,--,1589025220,2020,5,9,11,53,40,32.91497,-117.40368,-3.4,332.11,4.08,2.33,7,4.98,18.1,,74.8,,,13.57,29.9,29.9,1012.56,19.64,604.5,18.3,0.0736,,,,6670,0,0.1732,0,0,0,2.04,10,1589024999,13.43,1589024519,32.91497,-117.40368,2,10,-0.39,0.93,2.1,3.6,5118,344.4,1589025220,32.90625,-117.42586
2.1,Torrey Pines Outer (CDIP Station 100),deployed,Wave Glider,--,1589025999,2020,5,9,12,6,39,32.91471,-117.40606,-4.3,339.13,4.65,2.92,7.78,5.66,18.1,,74.8,,,13.57,29.9,29.9,1012.56,19.64,604.5,18.3,0.074,,,,6700,0,0.1732,0,0,0,2.04,10,1589025774,13.45,1589025294,32.91471,-117.40606,2,9,-0.27,0.93,2.9,4.3,5070,352.5,1589025999,32.91527,-117.38788
2.1,Torrey Pines Outer (CDIP Station 100),deployed,Wave Glider,--,1589026773,2020,5,9,12,19,33,32.91456,-117.40854,-8,346.08,4.22,1.75,6.61,5.14,18,,75.8,,,13.68,29.91,29.91,1012.89,10.4,582.77,18.2,0.0764,,,,6800,0.0118,0.1732,0,0,0,2.04,10,1589026549,13.45,1589026069,32.91456,-117.40854,2,9,-0.28,0.98,2.6,4.6,5352,0.3,1589026773,32.90625,-117.42586
2.1,Torrey Pines Outer (CDIP Station 100),deployed,Wave Glider,--,1589027548,2020,5,9,12,32,28,32.91486,-117.41053,-4.7,139.87,4.7,1.94,7.19,5.74,17.9,,76.2,,,13.67,29.91,29.91,1012.89,10.4,570.87,18.2,0.0764,,,,6840,0,0.1732,0,0,0,2.04,10,1589027324,13.45,1589026842,32.91486,-117.41053,2,9,-0.95,1.07,2,5.3,4875,130.4,1589027548,32.91527,-117.38788
2.1,Torrey Pines Outer (CDIP Station 100),deployed,Wave Glider,--,1589028384,2020,5,9,12,46,24,32.9112,-117.41087,3.8,157.31,2.14,0.19,5.83,2.61,17.8,,75.1,,,13.35,29.9,29.9,1012.56,19.64,566.5,18.1,0.0764,,,,6860,0,0.1732,0,0,0,2.04,10,1589028097,13.46,1589027616,32.9112,-117.41087,2,10,-1.05,0.99,1.9,4.1,4840,151.6,1589028384,32.83823,-115.93398
2.1,Torrey Pines Outer (CDIP Station 100),deployed,Wave Glider,--,1589029154,2020,5,9,12,59,14,32.90695,-117.40975,-1.9,58.18,2.14,0.39,5.25,2.61,17.9,,75.6,,,13.54,29.91,29.91,1012.89,10.4,569.3,18.1,0.0764,,,,6870,0,0.1732,0,0,0,2.04,10,1589028871,13.4,1589028452,32.90695,-117.40975,2,11,-0.79,0.91,1.8,4.3,5634,65.9,1589029154,32.91527,-117.38788
2.1,Torrey Pines Outer (CDIP Station 100),deployed,Wave Glider,--,1589029935,2020,5,9,13,12,15,32.90645,-117.40742,1,52.99,2.14,0.39,4.47,2.61,17.9,,75.4,,,13.5,29.91,29.91,1012.89,10.4,568.77,18.1,0.0764,,,,6870,0,0.1732,0,0,0,2.04,10,1589029707,13.47,1589029222,32.90645,-117.40742,2,10,-0.73,0.88,2.4,6.8,5629,66.9,1589029935,32.86692,-117.46381
2.1,Torrey Pines Outer (CDIP Station 100),deployed,Wave Glider,--,1589030697,2020,5,9,13,24,57,32.90608,-117.40544,4.8,51.27,1.26,0.19,2.92,1.54,17.8,,75.1,,,13.35,29.91,29.91,1012.89,10.4,555.06,18.1,0.0764,,,,6870,0,0.1732,0,0,0,2.04,10,1589030478,13.44,1589029993,32.90608,-117.40544,2,9,-0.76,0.87,1.6,4.4,5583,61.4,1589030697,32.91527,-117.38788
2.1,Torrey Pines Outer (CDIP Station 100),deployed,Wave Glider,--,1589031465,2020,5,9,13,37,45,32.90612,-117.40348,-0.4,70.18,2.43,0.39,4.47,2.96,17.9,,75.2,,,13.46,29.91,29.91,1012.89,10.4,568.25,18.2,0.0764,,,,6870,0,0.1732,0,0,0,2.04,10,1589031249,13.42,1589030764,32.90612,-117.40348,2,9,-0.79,0.89,1.3,4.2,5635,60,1589031465,32.91527,-117.38788
2.1,Torrey Pines Outer (CDIP Station 100),deployed,Wave Glider,--,1589032236,2020,5,9,13,50,36,32.90626,-117.40207,-6.1,63.98,4.22,1.36,7.19,5.14,18,,77.5,,,14.02,29.92,29.92,1013.23,1.15,575.81,18.2,0.0764,,,,6870,0,0.1732,0,0,0,2.04,10,1589032020,13.44,1589031535,32.90626,-117.40207,2,8,-0.69,0.89,2.4,5,5573,50,1589032236,32.96392,-115.8757
2.1,Torrey Pines Outer (CDIP Station 100),deployed,Wave Glider,--,1589033007,2020,5,9,14,3,27,32.90763,-117.40096,0.8,33.45,4.3,1.17,7.78,5.24,18,,76.6,,,13.84,29.92,29.92,1013.23,1.15,573.44,18.3,0.0764,,,,6870,0,0.1732,0,0,0,2.04,10,1589032791,13.43,1589032305,32.90763,-117.40096,2,8,-0.83,0.96,1.7,4.3,5461,17.4,1589033007,32.91527,-117.38788
2.1,Torrey Pines Outer (CDIP Station 100),deployed,Wave Glider,--,1589033769,2020,5,9,14,16,9,32.91109,-117.40093,-2.3,44.88,2.29,0.58,4.08,2.8,18,,76.4,,,13.8,29.92,29.92,1013.23,1.15,572.91,18.3,0.0764,,,,6870,0,0.1732,0,0,0,2.04,10,1589033560,13.44,1589033075,32.91109,-117.40093,2,10,-0.54,0.89,1.8,5.4,5506,30.1,1589033769,32.91527,-117.38788
2.1,Torrey Pines Outer (CDIP Station 100),deployed,Wave Glider,--,1589034548,2020,5,9,14,29,8,32.91292,-117.40086,-1.8,36.42,3.99,1.75,8.16,4.86,18.2,,76.3,,,13.98,29.93,29.93,1013.57,-8.09,587.12,18.4,0.0764,,,,6870,0,0.1732,0,0,0,2.04,10,1589034330,13.46,1589033845,32.91292,-117.40086,2,9,-0.34,0.96,2.1,4.3,5533,23.4,1589034548,32.91527,-117.38788
2.1,Torrey Pines Outer (CDIP Station 100),deployed,Wave Glider,--,1589035323,2020,5,9,14,42,3,32.9152,-117.4016,-6.1,296.9,1.59,0,4.08,1.94,18.1,,76.3,,,13.88,29.94,29.94,1013.91,-17.34,562.73,18.4,0.0764,,,,6870,0,0.1732,0,0,0,2.04,10,1589035100,13.37,1589034616,32.9152,-117.4016,2,10,-0.18,0.97,5.3,4,4333,305,1589035323,32.91527,-117.38788
2.1,Torrey Pines Outer (CDIP Station 100),deployed,Wave Glider,--,1589036095,2020,5,9,14,54,55,32.91525,-117.40579,-6.8,277.78,2.76,0.39,6.03,3.37,18.2,,76.7,,,14.06,29.94,29.94,1013.91,-17.34,576.75,18.5,0.0764,,,,6870,0,0.1732,0,0,0,2.04,10,1589035871,13.4,1589035391,32.91525,-117.40579,2,10,-0.42,0.94,2.3,4.2,4300,290.4,1589036095,32.91527,-117.38788
2.1,Torrey Pines Outer (CDIP Station 100),deployed,Wave Glider,--,1589036870,2020,5,9,15,7,50,32.91533,-117.4099,-5.3,173.48,2.78,0.19,5.25,3.39,18.2,,77.1,,,14.14,29.94,29.94,1013.91,-17.34,577.82,18.5,0.0764,,,,6870,0,0.1732,0,0,0,2.04,10,1589036646,13.39,1589036166,32.91533,-117.4099,2,9,-0.82,0.93,1.9,3.8,4732,178.2,1589036870,32.91527,-117.38788
2.1,Torrey Pines Outer (CDIP Station 100),deployed,Wave Glider,--,1589037643,2020,5,9,15,20,43,32.91201,-117.41095,-1.1,164.56,5.68,3.89,7.78,6.92,18.4,,78.1,,,14.53,29.94,29.94,1013.91,-17.34,606.47,18.6,0.0764,,,,6870,0,0.1732,0,0,0,2.04,10,1589037421,13.44,1589036941,32.91201,-117.41095,2,9,-0.88,0.92,1,3.9,4758,161.7,1589037643,32.91527,-117.38788
2.1,Torrey Pines Outer (CDIP Station 100),deployed,Wave Glider,--,1589038419,2020,5,9,15,33,39,32.90851,-117.41105,-1.8,127.9,,0,7.58,,18.3,,77.6,,,14.33,29.94,29.94,1013.91,-17.34,592.14,18.6,0.0764,,,,6870,0,0.1732,0,0,0,2.04,10,1589038196,13.45,1589037716,32.90851,-117.41105,2,9,-0.97,1.02,1,3.7,5364,124.3,1589038419,32.86757,-117.36821
2.1,Torrey Pines Outer (CDIP Station 100),deployed,Wave Glider,--,1589039183,2020,5,9,15,46,23,32.90698,-117.40879,-4.2,94.53,3.05,0.78,4.86,3.72,18.3,,77.6,,,14.33,29.94,29.94,1013.91,-17.34,592.14,18.6,0.0764,,,,6870,0,0.1732,0,0,0,2.04,10,1589038971,13.4,1589038488,32.90698,-117.40879,2,10,-0.85,0.98,1.4,3.7,5382,87.5,1589039183,32.91527,-117.38788
2.1,Torrey Pines Outer (CDIP Station 100),deployed,Wave Glider,--,1589039954,2020,5,9,15,59,14,32.90695,-117.4069,-5.4,88.33,4.51,0.58,7.58,5.5,18.5,,78,,,14.61,29.94,29.94,1013.91,-17.34,619.2,18.8,0.0764,,,,6870,0,0.1732,0,0,0,2.04,10,1589039744,13.4,1589039259,32.90695,-117.4069,2,10,-0.91,1,1.6,4.6,5451,82.2,1589039954,32.95514,-117.25418
2.1,Torrey Pines Outer (CDIP Station 100),deployed,Wave Glider,--,1589040725,2020,5,9,16,12,5,32.90692,-117.40517,-5.5,84.61,5.13,2.92,7.39,6.26,18.5,,77.1,,,14.43,29.94,29.94,1013.91,-17.34,616.75,18.9,0.0764,,,,6870,0,0.1732,0,0,0,2.04,10,1589040515,13.42,1589040030,32.90692,-117.40517,2,10,-0.78,0.99,1.5,5.1,5594,73.4,1589040725,32.88765,-119.87757
2.1,Torrey Pines Outer (CDIP Station 100),deployed,Wave Glider,--,1589041506,2020,5,9,16,25,6,32.90695,-117.40371,-4.1,91.26,5.05,2.53,7.39,6.16,18.5,,77.8,,,14.57,29.95,29.95,1014.25,-26.57,607.22,18.9,0.0764,,,,6870,0,0.1732,0,0,0,2.04,10,1589041286,13.39,1589040801,32.90695,-117.40371,2,10,-0.85,0.96,1.3,4.7,5462,76.6,1589041506,32.91527,-117.38788
2.1,Torrey Pines Outer (CDIP Station 100),deployed,Wave Glider,--,1589042276,2020,5,9,16,37,56,32.90691,-117.40204,-3,39.82,3.36,0.97,7.39,4.1,18.4,,78,,,14.51,29.95,29.95,1014.25,-26.57,594.77,18.9,0.0764,,,,6870,0,0.1732,0,0,0,2.04,10,1589042057,13.4,1589041572,32.90691,-117.40204,2,10,-1.1,0.98,1,4.8,5451,52.5,1589042276,32.88497,-117.38788
2.1,Torrey Pines Outer (CDIP Station 100),deployed,Wave Glider,--,1589043044,2020,5,9,16,50,44,32.90889,-117.40102,1.6,27.35,1.87,0.19,3.11,2.28,18.5,,76.5,,,14.31,29.95,29.95,1014.25,-26.57,603.68,19,0.0764,,,,6870,0,0.1732,0,0,0,2.04,10,1589042828,13.44,1589042343,32.90889,-117.40102,2,10,-0.91,0.92,0.8,5.1,5513,23.1,1589043044,32.89787,-117.36821
2.1,Torrey Pines Outer (CDIP Station 100),deployed,Wave Glider,--,1589043813,2020,5,9,17,3,33,32.91043,-117.40096,0.4,28.88,1.52,0.19,2.92,1.85,18.5,,76.1,,,14.23,29.95,29.95,1014.25,-26.57,602.6,19.1,0.0764,,,,0,0,0.1732,0,0,0,2.04,10,1589043598,13.38,1589043113,32.91043,-117.40096,2,11,-0.87,0.92,0.9,4.4,5544,22,1589043813,32.91527,-117.38788
2.1,Torrey Pines Outer (CDIP Station 100),deployed,Wave Glider,--,1589044587,2020,5,9,17,16,27,32.91209,-117.40091,0.7,24.62,2.08,0,4.47,2.54,18.6,,75.8,,,14.26,29.95,29.95,1014.25,-26.57,614.74,19.2,0.0764,,,,6870,0,0.1732,0,0,0,2.04,10,1589044368,13.37,1589043883,32.91209,-117.40091,2,9,-0.66,0.94,1,4.9,5408,14.6,1589044587,32.94556,-117.38788
2.1,Torrey Pines Outer (CDIP Station 100),deployed,Wave Glider,--,1589045359,2020,5,9,17,29,19,32.91402,-117.40086,-1.3,325.66,3.17,1.75,4.86,3.86,18.7,,76.7,,,14.54,29.96,29.96,1014.59,-35.81,618.75,19.3,0.0764,,,,6870,0,0.1732,0,0,0,2.04,10,1589045138,13.43,1589044654,32.91402,-117.40086,2,9,-0.58,0.93,1.9,3.9,4177,349,1589045359,32.91527,-117.38788
2.1,Torrey Pines Outer (CDIP Station 100),deployed,Wave Glider,--,1589046135,2020,5,9,17,42,15,32.91524,-117.40314,-2.4,269.97,1.4,0.58,4.08,1.71,18.8,,76.6,,,14.62,29.96,29.96,1014.59,-35.81,631.45,19.3,0.0764,,,,6870,0,0.1732,0,0,0,2.04,10,1589045909,13.42,1589045427,32.91524,-117.40314,2,9,-0.49,0.93,2.1,3.4,4199,285.3,1589046135,32.91527,-117.38788
2.1,Torrey Pines Outer (CDIP Station 100),deployed,Wave Glider,--,1589046967,2020,5,9,17,56,7,32.91528,-117.4069,-5.6,262.72,2.95,1.94,4.67,3.6,18.8,,76.6,,,14.62,29.96,29.96,1014.59,-35.81,631.45,19.4,0.0764,,,,0,0,0.1732,0,0,0,2.04,10,1589046682,13.44,1589046203,32.91528,-117.4069,2,9,-0.5,0.94,1.8,4.4,4201,278.8,1589046967,32.90625,-117.42586
2.1,Torrey Pines Outer (CDIP Station 100),deployed,Wave Glider,--,1589047741,2020,5,9,18,9,1,32.91437,-117.41082,-0.9,165.96,3.4,0,5.05,4.15,18.8,,76.1,,,14.52,29.96,29.96,1014.59,-35.81,630.07,19.4,0.0764,,,,6870,0,0.1732,0,0,0,2.04,10,1589047458,13.42,1589047039,32.91437,-117.41082,2,9,-0.77,0.91,1,3.8,4711,167.8,1589047741,32.91639,-117.19654
2.1,Torrey Pines Outer (CDIP Station 100),deployed,Wave Glider,--,1589048521,2020,5,9,18,22,1,32.91086,-117.41092,1.6,167.02,4.78,2.14,7.78,5.83,18.8,,77,,,14.7,29.96,29.96,1014.59,-35.81,632.56,19.5,0.0764,,,,6870,0,0.1732,0,0,0,2.04,10,1589048294,13.48,1589047815,32.91086,-117.41092,2,10,-0.78,0.91,1.6,3.7,4644,166,1589048521,32.91461,-117.48354
2.1,Torrey Pines Outer (CDIP Station 100),deployed,Wave Glider,--,1589049292,2020,5,9,18,34,52,32.90753,-117.41094,2.2,95.23,4.37,2.14,7.19,5.33,18.8,,77.9,,,14.88,29.96,29.96,1014.59,-35.81,635.05,19.4,0.0764,,,,6870,0,0.1732,0,0,0,2.04,10,1589049070,13.4,1589048591,32.90753,-117.41094,2,9,-0.96,0.94,2,3.7,5455,87,1589049292,32.91527,-117.38788
2.1,Torrey Pines Outer (CDIP Station 100),deployed,Wave Glider,--,1589050057,2020,5,9,18,47,37,32.90702,-117.40763,4.7,94.4,4.59,2.72,6.61,5.59,18.7,,79.1,,,15.02,29.96,29.96,1014.59,-35.81,625.36,19.3,0.0764,,,,6870,0,0.1732,0,0,0,2.04,10,1589049846,13.43,1589049362,32.90702,-117.40763,2,10,-0.88,0.91,1.9,3.9,5454,81.1,1589050057,32.91527,-117.38788
2.1,Torrey Pines Outer (CDIP Station 100),deployed,Wave Glider,--,1589050836,2020,5,9,19,0,36,32.90695,-117.4051,5.6,88.85,3.07,1.36,5.05,3.74,18.7,,79.3,,,15.06,29.97,29.97,1014.93,-45.04,614.48,19.2,0.0764,,,,6870,0,0.1732,0,0,0,2.04,10,1589050618,13.55,1589050133,32.90695,-117.4051,2,10,-0.85,0.9,1.4,4.4,5506,76.1,1589050836,32.91527,-117.38788
2.1,Torrey Pines Outer (CDIP Station 100),deployed,Wave Glider,--,1589051599,2020,5,9,19,13,19,32.90693,-117.40226,2,14.72,4.55,2.33,6.8,5.55,18.9,,77.8,,,14.96,29.96,29.96,1014.59,-35.81,647.77,19.3,0.0764,,,,6870,0,0.1732,0,0,0,2.04,10,1589051388,13.43,1589050904,32.90693,-117.40226,2,11,-0.78,0.96,2.3,3.8,5191,40.2,1589051599,32.91527,-117.38788
2.1,Torrey Pines Outer (CDIP Station 100),deployed,Wave Glider,--,1589052381,2020,5,9,19,26,21,32.90916,-117.40086,5.1,344.92,5.05,2.92,7,6.16,19,,78.8,,,15.25,29.97,29.97,1014.93,-45.04,652.16,19.4,0.0764,,,,6870,0,0.1732,0,0,0,2.04,10,1589052159,13.45,1589051675,32.90916,-117.40086,2,10,-0.27,0.96,2.2,3.7,5255,358.7,1589052381,32.91527,-117.38788
2.1,Torrey Pines Outer (CDIP Station 100),deployed,Wave Glider,--,1589053153,2020,5,9,19,39,13,32.9113,-117.40081,5.8,342.33,4.84,2.92,7.39,5.9,18.9,,77.4,,,14.88,29.96,29.96,1014.59,-35.81,646.66,19.5,0.0764,,,,6880,0,0.1732,0,0,0,2.04,10,1589052930,13.46,1589052449,32.9113,-117.40081,2,9,-0.27,0.95,2.3,3.7,5208,359,1589053153,32.90687,-117.33022
2.1,Torrey Pines Outer (CDIP Station 100),deployed,Wave Glider,--,1589053985,2020,5,9,19,53,5,32.91365,-117.40081,-0.6,340.33,5.7,3.11,8.55,6.94,19,,77.9,,,15.07,29.96,29.96,1014.59,-35.81,661.06,19.7,0.0764,,,,6890,0,0.1732,0,0,0,2.04,10,1589053704,13.39,1589053222,32.91365,-117.40081,2,10,-0.23,1.01,3.5,4.9,4214,353,1589053985,32.91527,-117.38788
2.1,Torrey Pines Outer (CDIP Station 100),deployed,Wave Glider,--,1589054761,2020,5,9,20,6,1,32.91526,-117.40285,-1.3,277.7,7.66,5.25,10.5,9.34,18.8,,77.4,,,14.78,29.96,29.96,1014.59,-35.81,633.67,19.6,0.0776,,,,7050,0.0079,0.1732,0,0,0,2.04,10,1589054477,13.41,1589054054,32.91526,-117.40285,2,10,-0.21,1.16,5,5.4,4198,286.5,1589054761,32.94556,-117.38788
2.1,Torrey Pines Outer (CDIP Station 100),deployed,Wave Glider,--,1589055537,2020,5,9,20,18,57,32.91531,-117.40664,-1.3,277.66,6.84,5.05,8.75,8.34,18.8,,76.6,,,14.62,29.96,29.96,1014.59,-35.81,631.45,19.5,0.0787,,,,7200,0,0.1732,0,0,0,2.04,10,1589055309,13.46,1589054830,32.91531,-117.40664,2,10,-0.21,1.11,3.6,4,4183,284.5,1589055537,32.90625,-117.42586
2.1,Torrey Pines Outer (CDIP Station 100),deployed,Wave Glider,--,1589056311,2020,5,9,20,31,51,32.91533,-117.40962,-2.9,232.52,8.69,6.03,12.25,10.59,18.7,,77.5,,,14.7,29.96,29.96,1014.59,-35.81,620.95,19.4,0.0799,,,,7290,0,0.1732,0,0,0,2.04,10,1589056085,13.41,1589055606,32.91533,-117.40962,2,9,-0.79,1.12,2.4,6.5,4409,230.7,1589056311,32.91527,-117.38788
2.1,Torrey Pines Outer (CDIP Station 100),deployed,Wave Glider,--,1589057084,2020,5,9,20,44,44,32.91299,-117.41064,-7.5,214.99,9.31,6.8,12.25,11.35,18.6,,77,,,14.51,29.96,29.96,1014.59,-35.81,606.6,19.3,0.0803,,,,7480,0,0.1732,0,0,0,2.04,10,1589056861,13.46,1589056381,32.91299,-117.41064,2,9,-0.92,1.07,2.5,4.6,0,208,1589057084,32.95394,-117.44557
2.1,Torrey Pines Outer (CDIP Station 100),deployed,Wave Glider,--,1589057861,2020,5,9,20,57,41,32.90944,-117.41089,-7.4,112.95,8.28,6.22,10.3,10.1,18.6,,77.4,,,14.59,29.96,29.96,1014.59,-35.81,607.69,19.2,0.0819,,,,7660,0,0.1732,0,0,0,2.04,10,1589057636,13.45,1589057156,32.90944,-117.41089,2,7,-1,1.1,2.8,5.2,5580,153.8,1589057861,32.91527,-117.38788
2.1,Torrey Pines Outer (CDIP Station 100),deployed,Wave Glider,--,1589058632,2020,5,9,21,10,32,32.90692,-117.40833,-1.3,48.46,8.44,6.03,11.47,10.29,18.5,,76.9,,,14.39,29.96,29.96,1014.59,-35.81,593.35,19.1,0.0827,,,,7770,0,0.1732,0,0,0,2.04,10,1589058411,13.43,1589057928,32.90692,-117.40833,2,8,-0.35,1.13,4.6,8.5,5599,60.6,1589058632,32.91527,-117.38788
2.1,Torrey Pines Outer (CDIP Station 100),deployed,Wave Glider,--,1589059403,2020,5,9,21,23,23,32.9069,-117.40397,3.7,33.8,8.3,0,11.28,10.12,18.5,,77,,,14.41,29.95,29.95,1014.25,-26.57,605.04,19.1,0.0831,,,,7800,0,0.1732,0,0,0,2.04,10,1589059184,13.32,1589058699,32.9069,-117.40397,2,8,-0.36,1.21,3.7,8.2,5218,50.1,1589059403,32.91527,-117.38788
2.1,Torrey Pines Outer (CDIP Station 100),deployed,Wave Glider,--,1589060177,2020,5,9,21,36,17,32.90835,-117.40085,1.6,338.81,6.78,4.67,9.14,8.27,18.5,,76.4,,,14.29,29.95,29.95,1014.25,-26.57,603.41,19.2,0.0843,,,,8080,0.0039,0.1732,0,0,0,2.04,10,1589059955,13.45,1589059470,32.90835,-117.40085,2,9,-0.06,1.12,4.3,6,5144,350.5,1589060177,32.91527,-117.38788
2.1,Torrey Pines Outer (CDIP Station 100),deployed,Wave Glider,--,1589060954,2020,5,9,21,49,14,32.91051,-117.40078,1.7,339.43,6.4,0,9.33,7.8,18.5,,76.8,,,14.37,29.95,29.95,1014.25,-26.57,604.5,19.3,0.0846,,,,8240,0,0.1732,0,0,0,2.04,10,1589060726,13.4,1589060245,32.91051,-117.40078,2,10,-0.1,1.1,5,5.1,5020,352.2,1589060954,32.91527,-117.38788
2.1,Torrey Pines Outer (CDIP Station 100),deployed,Wave Glider,--,1589061725,2020,5,9,22,2,5,32.91254,-117.40076,2.9,335.18,6.16,4.28,8.36,7.51,18.5,,75.1,,,14.02,29.94,29.94,1013.91,-17.34,611.3,19.3,0.0858,,,,8340,0,0.1732,0,0,0,2.04,10,1589061500,13.5,1589061020,32.91254,-117.40076,2,9,-0.22,1.17,4.2,5.6,4934,346.5,1589061725,32.95458,-117.34988
2.1,Torrey Pines Outer (CDIP Station 100),deployed,Wave Glider,--,1589062502,2020,5,9,22,15,2,32.91433,-117.40078,-0.7,315.45,6.38,4.67,8.75,7.77,18.5,,75.3,,,14.06,29.94,29.94,1013.91,-17.34,611.85,19.3,0.0862,,,,8440,0.0039,0.1732,0,0,0,2.04,10,1589062275,13.44,1589061795,32.91433,-117.40078,2,9,-0.31,1.12,4.3,5.6,4263,320.4,1589062502,32.92365,-117.44557
2.1,Torrey Pines Outer (CDIP Station 100),deployed,Wave Glider,--,1589063270,2020,5,9,22,27,50,32.91515,-117.40355,1.6,297.25,6.32,4.86,8.75,7.7,18.5,,75.5,,,14.1,29.94,29.94,1013.91,-17.34,612.39,19.2,0.0866,,,,8580,0,0.1732,0,0,0,2.04,10,1589063050,13.4,1589062571,32.91515,-117.40355,2,9,-0.44,1.07,3.9,5.1,4273,298.8,1589063270,32.92258,-118.36453
2.1,Torrey Pines Outer (CDIP Station 100),deployed,Wave Glider,--,1589064055,2020,5,9,22,40,55,32.91519,-117.40701,3.2,294.63,5.68,3.69,7.39,6.92,18.4,,75.8,,,14.07,29.93,29.93,1013.57,-8.09,611.69,19.2,0.0894,,,,8730,0.0433,0.1732,0,0,0,2.04,10,1589063826,13.38,1589063347,32.91519,-117.40701,2,8,-0.38,1.1,2.8,5,4319,298,1589064055,32.91527,-117.38788
2.1,Torrey Pines Outer (CDIP Station 100),deployed,Wave Glider,--,1589064829,2020,5,9,22,53,49,32.91529,-117.41043,2.3,211.67,5.38,3.89,6.8,6.56,18.4,,74.4,,,13.78,29.93,29.93,1013.57,-8.09,607.9,19.3,0.0894,,,,8800,0,0.1732,0,0,0,2.04,10,1589064602,13.4,1589064123,32.91529,-117.41043,2,8,-0.95,1.13,2.7,5.4,4368,204.4,1589064829,32.91527,-117.38788
2.1,Torrey Pines Outer (CDIP Station 100),deployed,Wave Glider,--,1589065604,2020,5,9,23,6,44,32.9106,-117.41087,-0.9,170.43,3.97,2.92,6.22,4.83,18.5,,75.7,,,14.15,29.92,29.92,1013.23,1.15,635.8,19.3,0.0894,,,,8820,0,0.1732,0,0,0,2.04,10,1589065378,13.44,1589064898,32.9106,-117.41087,2,8,-0.99,1.13,2.5,5.8,5599,178.8,1589065604,32.95394,-117.44557
2.1,Torrey Pines Outer (CDIP Station 100),deployed,Wave Glider,--,1589066376,2020,5,9,23,19,36,32.90697,-117.40977,2,353.2,5.66,3.5,7.58,6.9,18.6,,74.9,,,14.08,29.91,29.91,1012.89,10.4,658,19.4,0.0894,,,,0,0,0.1732,0,0,0,2.04,10,1589066153,13.42,1589065673,32.90697,-117.40977,2,9,-0.26,1.12,3.4,5.3,4967,9.1,1589066376,32.91527,-117.38788
2.1,Torrey Pines Outer (CDIP Station 100),deployed,Wave Glider,--,1589067153,2020,5,9,23,32,33,32.90803,-117.4092,0,335.52,5.64,3.69,7.78,6.87,18.6,,73.8,,,13.85,29.91,29.91,1012.89,10.4,654.99,19.5,0.0898,,,,8980,0.0039,0.1732,0,0,0,2.04,10,1589066928,13.53,1589066445,32.90803,-117.4092,2,8,-0.13,1.12,3.1,4.5,5137,347,1589067153,32.90625,-117.42586
2.1,Torrey Pines Outer (CDIP Station 100),deployed,Wave Glider,--,1589067929,2020,5,9,23,45,29,32.90998,-117.4096,2.1,334.05,,2.72,7.78,,18.6,,74,,,13.89,29.92,29.92,1013.23,1.15,644.1,19.5,0.0902,,,,9080,0,0.1732,0,0,0,2.04,10,1589067701,13.45,1589067220,32.90998,-117.4096,2,9,-0.18,1.1,3.4,4.9,5047,347,1589067929,32.91527,-117.38788
2.1,Torrey Pines Outer (CDIP Station 100),deployed,Wave Glider,--,1589068700,2020,5,9,23,58,20,32.91189,-117.41001,3.7,335.99,,1.94,6.8,,18.6,,73.9,,,13.87,29.92,29.92,1013.23,1.15,643.83,19.4,0.0906,,,,9140,0,0.1732,0,0,0,2.04,10,1589068476,13.45,1589067995,32.91189,-117.41001,2,10,-0.21,1.16,2.9,5.7,5210,350.6,1589068700,32.90625,-117.42586
2.1,Torrey Pines Outer (CDIP Station 100),deployed,Wave Glider,--,1589069473,2020,5,10,0,11,13,32.91365,-117.41034,-5.1,334.21,3.6,2.14,5.05,4.38,18.7,,74.7,,,14.13,29.92,29.92,1013.23,1.15,658.96,19.3,0.0906,,,,9200,0.0079,0.1732,0,0,0,2.04,10,1589069251,13.43,1589068770,32.91365,-117.41034,2,8,-0.33,1.12,2.6,5.2,5027,349,1589069473,32.91527,-117.38788
2.1,Torrey Pines Outer (CDIP Station 100),deployed,Wave Glider,--,1589070250,2020,5,10,0,24,10,32.91543,-117.41074,-12.1,330.32,3.95,1.94,6.03,4.81,18.5,,74,,,13.8,29.92,29.92,1013.23,1.15,631.18,19.2,0.0909,,,,9270,0,0.1732,0,0,0,2.04,10,1589070026,13.43,1589069542,32.91543,-117.41074,2,8,-0.33,1.13,2.8,4.4,5078,345.1,1589070250,32.95458,-117.34988
2.1,Torrey Pines Outer (CDIP Station 100),deployed,Wave Glider,--,1589071016,2020,5,10,0,36,56,32.91709,-117.4111,-3.8,335.71,3.62,2.14,5.44,4.41,18.5,,74,,,13.8,29.92,29.92,1013.23,1.15,631.18,19,0.0913,,,,9330,0,0.1732,0,0,0,2.04,10,1589070797,13.41,1589070317,32.91709,-117.4111,2,9,-0.39,1.08,2.4,4.7,5120,347.1,1589071016,32.91527,-117.38788
2.1,Torrey Pines Outer (CDIP Station 100),deployed,Wave Glider,--,1589071797,2020,5,10,0,49,57,32.91864,-117.41146,-4.4,332.87,4.84,1.75,7.78,5.9,18.6,,75.5,,,14.2,29.91,29.91,1012.89,10.4,659.65,19,0.0913,,,,9340,0,0.1732,0,0,0,2.04,10,1589071572,13.45,1589071092,32.91864,-117.41146,2,11,-0.36,1.03,2.6,4.4,5120,347.1,1589071797,32.91527,-117.38788
2.1,Torrey Pines Outer (CDIP Station 100),deployed,Wave Glider,--,1589072572,2020,5,10,1,2,52,32.92026,-117.41182,-4.3,342.35,4.32,1.17,8.16,5.26,18.3,,73.7,,,13.54,29.91,29.91,1012.89,10.4,615.96,18.9,0.0917,,,,9450,0,0.1732,0,0,0,2.04,10,1589072347,13.49,1589071867,32.92026,-117.41182,2,10,-0.32,1.13,3.3,4.8,5085,351.9,1589072572,32.91527,-117.38788
2.1,Torrey Pines Outer (CDIP Station 100),deployed,Wave Glider,--,1589073347,2020,5,10,1,15,47,32.9216,-117.41209,-2.9,336.33,4.98,2.53,7.39,6.07,18.3,,75,,,13.81,29.91,29.91,1012.89,10.4,619.46,18.8,0.0917,,,,9460,0,0.1732,0,0,0,2.04,10,1589073122,13.47,1589072642,32.9216,-117.41209,2,10,-0.3,1.09,2.7,4.3,5153,351.2,1589073347,32.91527,-117.38788
2.1,Torrey Pines Outer (CDIP Station 100),deployed,Wave Glider,--,1589074121,2020,5,10,1,28,41,32.92263,-117.41232,-1.5,338.89,4.37,2.72,6.8,5.33,18.5,,73.4,,,13.67,29.92,29.92,1013.23,1.15,629.54,19.1,0.0925,,,,9530,0,0.1732,0,0,0,2.04,10,1589073897,13.45,1589073417,32.92263,-117.41232,2,10,-0.31,1.11,3,4.9,5189,353.1,1589074121,32.94556,-117.38788
2.1,Torrey Pines Outer (CDIP Station 100),deployed,Wave Glider,--,1589074899,2020,5,10,1,41,39,32.92359,-117.41253,0.7,344.12,2.31,0.78,4.28,2.82,18.7,,72.3,,,13.63,29.92,29.92,1013.23,1.15,652.34,19.3,0.0925,,,,9550,0,0.1732,0,0,0,2.04,10,1589074672,13.37,1589074192,32.92359,-117.41253,2,10,-0.41,1.06,3.1,3.9,5278,357.1,1589074899,32.91527,-117.38788
2.1,Torrey Pines Outer (CDIP Station 100),deployed,Wave Glider,--,1589075667,2020,5,10,1,54,27,32.92452,-117.41278,3,353.74,2.8,1.56,4.28,3.41,18.7,,72.1,,,13.59,29.92,29.92,1013.23,1.15,651.79,19.4,0.0925,,,,9560,0,0.1732,0,0,0,2.04,10,1589075447,13.38,1589074966,32.92452,-117.41278,2,10,-0.41,1.07,3.3,4.7,5326,7,1589075667,32.95458,-117.34988
2.1,Torrey Pines Outer (CDIP Station 100),deployed,Wave Glider,--,1589076430,2020,5,10,2,7,10,32.92535,-117.41294,3.2,352.33,3.05,1.56,4.47,3.72,18.5,,72.7,,,13.52,29.92,29.92,1013.23,1.15,627.64,19.2,0.0925,,,,9570,0,0.1732,0,0,0,2.04,10,1589076221,13.43,1589075736,32.92535,-117.41294,2,10,-0.52,1,2.5,5.9,5382,4,1589076430,32.91461,-117.48354
2.1,Torrey Pines Outer (CDIP Station 100),deployed,Wave Glider,--,1589077200,2020,5,10,2,20,0,32.92569,-117.41302,5.1,353.46,4.34,2.33,5.44,5.29,18.2,,74.6,,,13.63,29.92,29.92,1013.23,1.15,594.01,18.6,0.0925,,,,9570,0,0.1732,0,0,0,2.04,10,1589076992,13.42,1589076506,32.92569,-117.41302,2,9,-0.35,0.97,2.4,4.9,5502,8.3,1589077200,32.95421,-118.26887
2.1,Torrey Pines Outer (CDIP Station 100),deployed,Wave Glider,--,1589077974,2020,5,10,2,32,54,32.92596,-117.41307,4,354.27,2.99,0,4.47,3.65,18.2,,74.7,,,13.65,29.93,29.93,1013.57,-8.09,582.85,18.4,0.0925,,,,9590,0,0.1732,0,0,0,2.04,10,1589077762,13.4,1589077276,32.92596,-117.41307,2,9,-0.47,0.93,2.2,5.1,5305,7.5,1589077974,32.94556,-117.38788
2.1,Torrey Pines Outer (CDIP Station 100),deployed,Wave Glider,--,1589078750,2020,5,10,2,45,50,32.92615,-117.41312,6.7,353.35,4.04,2.53,6.42,4.93,18.1,,75.4,,,13.7,29.93,29.93,1013.57,-8.09,571.77,18.3,0.0925,,,,9590,0,0.1732,0,0,0,2.04,10,1589078532,13.41,1589078047,32.92615,-117.41312,2,10,-0.49,0.94,2.2,4,5408,5.6,1589078750,32.91527,-117.38788
2.1,Torrey Pines Outer (CDIP Station 100),deployed,Wave Glider,--,1589079518,2020,5,10,2,58,38,32.92638,-117.41322,4.4,358,4.67,1.75,6.8,5.69,18.1,,76.1,,,13.84,29.92,29.92,1013.23,1.15,585.07,18.3,0.0925,,,,9630,0,0.1732,0,0,0,2.04,10,1589079303,13.42,1589078818,32.92638,-117.41322,2,9,-0.35,0.94,3,4.6,5481,11.4,1589079518,32.91527,-117.38788
2.1,Torrey Pines Outer (CDIP Station 100),deployed,Wave Glider,--,1589080291,2020,5,10,3,11,31,32.92669,-117.41325,4.8,6.58,5.5,3.11,7.97,6.71,18.2,,76.6,,,14.04,29.92,29.92,1013.23,1.15,599.36,18.3,0.0933,,,,9680,0,0.1732,0,0,0,2.04,10,1589080073,13.4,1589079588,32.92669,-117.41325,2,9,-0.33,0.98,2.4,4.2,5506,19.7,1589080291,32.91527,-117.38788
2.1,Torrey Pines Outer (CDIP Station 100),deployed,Wave Glider,--,1589081062,2020,5,10,3,24,22,32.927,-117.41333,5,8.03,5.56,3.5,8.55,6.78,18.1,,76.5,,,13.92,29.93,29.93,1013.57,-8.09,574.69,18.2,0.0933,,,,9740,0,0.1732,0,0,0,2.04,10,1589080843,13.4,1589080358,32.927,-117.41333,2,10,-0.44,0.98,2.2,4.7,5548,18.7,1589081062,32.90625,-117.42586
2.1,Torrey Pines Outer (CDIP Station 100),deployed,Wave Glider,--,1589081822,2020,5,10,3,37,2,32.92748,-117.41343,2.5,5.57,4.76,2.53,8.36,5.81,18,,76.1,,,13.74,29.93,29.93,1013.57,-8.09,560.68,18.2,0.0949,,,,9840,0,0.1732,0,0,0,2.04,10,1589081613,13.42,1589081128,32.92748,-117.41343,2,10,-0.33,1.08,2.8,4.5,5551,17.9,1589081822,32.91527,-117.38788
2.1,Torrey Pines Outer (CDIP Station 100),deployed,Wave Glider,--,1589082592,2020,5,10,3,49,52,32.92801,-117.41352,-2.3,8.4,3.3,0,4.86,4.03,18,,76,,,13.72,29.93,29.93,1013.57,-8.09,560.42,18.1,0.0949,,,,9870,0,0.1732,0,0,0,2.04,10,1589082383,13.46,1589081898,32.92801,-117.41352,2,11,-0.49,1,2.7,4.8,5517,19.6,1589082592,32.94556,-117.38788
2.1,Torrey Pines Outer (CDIP Station 100),deployed,Wave Glider,--,1589083365,2020,5,10,4,2,45,32.92846,-117.41362,-0.5,131.55,3.38,1.17,5.64,4.12,17.9,,76,,,13.63,29.93,29.93,1013.57,-8.09,547.47,18,0.0949,,,,9890,0,0.1732,0,0,0,2.04,10,1589083153,13.47,1589082668,32.92846,-117.41362,2,11,-0.81,0.94,2.6,4.1,5105,94.3,1589083365,32.90625,-117.42586
2.1,Torrey Pines Outer (CDIP Station 100),deployed,Wave Glider,--,1589084143,2020,5,10,4,15,43,32.92614,-117.41318,-1.9,17.49,4.04,2.33,6.03,4.93,18,,76.9,,,13.9,29.93,29.93,1013.57,-8.09,562.79,18,0.0953,,,,9930,0,0.1732,0,0,0,2.04,10,1589083923,13.45,1589083442,32.92614,-117.41318,2,11,-0.47,0.92,2.3,4.3,5578,27.9,1589084143,32.94334,-117.67485
2.1,Torrey Pines Outer (CDIP Station 100),deployed,Wave Glider,--,1589084913,2020,5,10,4,28,33,32.92617,-117.41309,-1.1,17.61,5.79,3.69,7.58,7.06,18.1,,77.1,,,14.04,29.92,29.92,1013.23,1.15,587.72,18.1,0.0953,,,,0,0,0.1732,0,0,0,2.04,10,1589084697,13.45,1589084213,32.92617,-117.41309,2,9,-0.33,0.93,3,4.5,5609,27.6,1589084913,32.90625,-117.42586
2.1,Torrey Pines Outer (CDIP Station 100),deployed,Wave Glider,--,1589085684,2020,5,10,4,41,24,32.9262,-117.41301,-4.9,16.39,4.94,2.92,6.61,6.02,18,,76.8,,,13.88,29.92,29.92,1013.23,1.15,573.96,18.1,0.0953,,,,9940,0,0.1732,0,0,0,2.04,10,1589085468,13.41,1589084982,32.9262,-117.41301,2,11,-0.38,0.93,3.3,4.9,5626,30.7,1589085684,32.90625,-117.42586
2.1,Torrey Pines Outer (CDIP Station 100),deployed,Wave Glider,--,1589086457,2020,5,10,4,54,17,32.92577,-117.41191,0.8,86.41,2.82,0.78,4.67,3.44,18,,76.7,,,13.86,29.93,29.93,1013.57,-8.09,562.26,18.1,0.0957,,,,9990,0,0.1732,0,0,0,2.04,10,1589086238,13.46,1589085753,32.92577,-117.41191,2,11,-0.73,0.97,2.6,3.8,5150,100,1589086457,32.91527,-117.38788
2.1,Torrey Pines Outer (CDIP Station 100),deployed,Wave Glider,--,1589087232,2020,5,10,5,7,12,32.92174,-117.4085,-2,358.79,4.43,2.14,7,5.4,18.1,,76.8,,,13.98,29.93,29.93,1013.57,-8.09,575.49,18.1,0.0969,,,,10040,0,0.1732,0,0,0,2.04,10,1589087009,13.49,1589086527,32.92174,-117.4085,2,9,-0.46,1.14,2.6,4.7,5184,0.3,1589087232,32.91527,-117.38788
2.1,Torrey Pines Outer (CDIP Station 100),deployed,Wave Glider,--,1589088003,2020,5,10,5,20,3,32.92365,-117.41112,1.1,5.47,4.08,2.72,5.83,4.98,18,,76.7,,,13.86,29.93,29.93,1013.57,-8.09,562.26,18.1,0.0972,,,,10080,0,0.1732,0,0,0,2.04,10,1589087783,13.43,1589087302,32.92365,-117.41112,2,10,-0.56,1.12,3.6,4.2,5529,9.1,1589088003,32.90625,-117.42586
2.1,Torrey Pines Outer (CDIP Station 100),deployed,Wave Glider,--,1589088775,2020,5,10,5,32,55,32.9261,-117.41222,-0.3,8.12,4.06,2.14,7,4.95,18,,76.6,,,13.84,29.93,29.93,1013.57,-8.09,562,18.1,0.0972,,,,10080,0,0.1732,0,0,0,2.04,10,1589088558,13.45,1589088073,32.9261,-117.41222,2,9,-0.61,1.09,2.7,4,5387,11.2,1589088775,32.96299,-117.40758
2.1,Torrey Pines Outer (CDIP Station 100),deployed,Wave Glider,--,1589089547,2020,5,10,5,45,47,32.92844,-117.41304,-2.5,4.59,3.77,0,6.61,4.6,18.1,,76.9,,,14,29.93,29.93,1013.57,-8.09,575.76,18.1,0.0972,,,,10080,0,0.1732,0,0,0,2.04,10,1589089329,13.39,1589088844,32.92844,-117.41304,2,9,-0.6,0.96,1.9,5,5349,8.4,1589089547,32.90625,-117.42586
2.1,Torrey Pines Outer (CDIP Station 100),deployed,Wave Glider,--,1589090322,2020,5,10,5,58,42,32.93078,-117.41385,-3.8,3.51,2.29,0.19,4.47,2.8,18.1,,76.1,,,13.84,29.93,29.93,1013.57,-8.09,573.63,18.2,0.0972,,,,10080,0,0.1732,0,0,0,2.04,10,1589090099,13.41,1589089615,32.93078,-117.41385,2,10,-0.71,0.97,1.3,4.3,5290,0.5,1589090322,32.91527,-117.38788
2.1,Torrey Pines Outer (CDIP Station 100),deployed,Wave Glider,--,1589091090,2020,5,10,6,11,30,32.93303,-117.41437,0,9.65,3.5,2.33,4.86,4.27,18.1,,76.4,,,13.9,29.93,29.93,1013.57,-8.09,574.43,18.3,0.0972,,,,10080,0,0.1732,0,0,0,2.04,10,1589090870,13.44,1589090388,32.93303,-117.41437,2,10,-0.69,0.96,1.9,4.6,5453,17.9,1589091090,32.95394,-117.44557
2.1,Torrey Pines Outer (CDIP Station 100),deployed,Wave Glider,--,1589091859,2020,5,10,6,24,19,32.9351,-117.41333,-2.8,9.85,2.72,0,4.86,3.32,18.1,,75.4,,,13.7,29.93,29.93,1013.57,-8.09,571.77,18.3,0.0972,,,,10080,0,0.1732,0,0,0,2.04,10,1589091643,13.42,1589091158,32.9351,-117.41333,2,10,-0.68,0.96,1.6,3.9,5485,17.1,1589091859,32.91683,-117.10087
2.1,Torrey Pines Outer (CDIP Station 100),deployed,Wave Glider,--,1589092632,2020,5,10,6,37,12,32.93725,-117.41227,-0.6,26.87,2.04,0.19,5.05,2.49,18.1,,75.8,,,13.78,29.93,29.93,1013.57,-8.09,572.83,18.3,0.0972,,,,10080,0,0.1732,0,0,0,2.04,10,1589092414,13.5,1589091928,32.93725,-117.41227,2,10,-0.7,0.92,1.4,4,5568,16.1,1589092632,32.94556,-117.38788
2.1,Torrey Pines Outer (CDIP Station 100),deployed,Wave Glider,--,1589093398,2020,5,10,6,49,58,32.93778,-117.41203,-1.4,5.23,3.93,1.56,6.03,4.79,18.2,,76.8,,,14.08,29.93,29.93,1013.57,-8.09,588.46,18.3,0.0972,,,,10080,0,0.1732,0,0,0,2.04,10,1589093185,13.38,1589092700,32.93778,-117.41203,2,11,-0.61,0.92,1.4,4.1,5445,13,1589093398,32.94556,-117.38788
2.1,Torrey Pines Outer (CDIP Station 100),deployed,Wave Glider,--,1589094173,2020,5,10,7,2,53,32.93789,-117.41188,-3.3,357.1,3.44,0.78,7.78,4.19,18,,76.5,,,13.82,29.93,29.93,1013.57,-8.09,561.73,18.3,0.0972,,,,10080,0,0.1732,0,0,0,2.04,10,1589093957,13.45,1589093472,32.93789,-117.41188,2,11,-0.53,0.91,2.2,4.6,5506,13.4,1589094173,32.91527,-117.38788
2.1,Torrey Pines Outer (CDIP Station 100),deployed,Wave Glider,--,1589094944,2020,5,10,7,15,44,32.938,-117.41183,-3.2,0.84,4.94,0,7.19,6.02,18.2,,77.4,,,14.2,29.93,29.93,1013.57,-8.09,590.06,18.3,0.0972,,,,10080,0,0.1732,0,0,0,2.04,10,1589094729,13.43,1589094243,32.938,-117.41183,2,11,-0.5,0.92,1.9,4.5,5467,14.3,1589094944,32.94556,-117.38788
2.1,Torrey Pines Outer (CDIP Station 100),deployed,Wave Glider,--,1589095712,2020,5,10,7,28,32,32.93825,-117.41174,-2.2,6.39,2.94,1.36,4.47,3.58,18,,76.7,,,13.86,29.93,29.93,1013.57,-8.09,562.26,18.2,0,,,,0,0,0.1732,0,0,0,2.04,10,1589095500,13.38,1589095015,32.93825,-117.41174,2,9,-0.47,0.91,1.7,3.8,5551,20.4,1589095712,32.91527,-117.38788
2.1,Torrey Pines Outer (CDIP Station 100),deployed,Wave Glider,--,1589096489,2020,5,10,7,41,29,32.93835,-117.41165,4.3,2.75,2.47,0.78,4.08,3.01,18.1,,76.8,,,13.98,29.93,29.93,1013.57,-8.09,575.49,18.2,0.0972,,,,10100,0,0.1732,0,0,0,2.04,10,1589096272,13.49,1589095785,32.93835,-117.41165,2,10,-0.52,0.91,1.5,3.8,5547,17.2,1589096489,32.90625,-117.42586
2.1,Torrey Pines Outer (CDIP Station 100),deployed,Wave Glider,--,1589097352,2020,5,10,7,55,52,32.9384,-117.41156,7.6,348.99,3.71,0,5.64,4.53,18.1,,76.8,,,13.98,29.93,29.93,1013.57,-8.09,575.49,18.2,0.0972,,,,10100,0,0.1732,0,0,0,2.04,10,1589097043,13.41,1589096556,32.9384,-117.41156,2,10,-0.53,0.92,1.6,3.5,5066,3.1,1589097352,32.94556,-117.38788
2.1,Torrey Pines Outer (CDIP Station 100),deployed,Wave Glider,--,1589098116,2020,5,10,8,8,36,32.93814,-117.41239,4.8,36.12,3.65,1.17,6.42,4.46,18.1,,76.6,,,13.94,29.93,29.93,1013.57,-8.09,574.96,18.3,0.0972,,,,10100,0,0.1732,0,0,0,2.04,10,1589097813,13.42,1589097420,32.93814,-117.41239,2,10,-0.58,0.9,2.7,3.4,5613,37.9,1589098116,32.94556,-117.38788
2.1,Torrey Pines Outer (CDIP Station 100),deployed,Wave Glider,--,1589098889,2020,5,10,8,21,29,32.93767,-117.41199,6,14.84,2.76,0.78,6.22,3.37,17.9,,76.4,,,13.71,29.94,29.94,1013.91,-17.34,537.08,18.2,0.0972,,,,10110,0,0.1732,0,0,0,2.04,10,1589098677,13.45,1589098192,32.93767,-117.41199,2,10,-0.54,0.93,1.4,4.1,5568,31.3,1589098889,32.92429,-117.34988
2.1,Torrey Pines Outer (CDIP Station 100),deployed,Wave Glider,--,1589099658,2020,5,10,8,34,18,32.93756,-117.41195,6.7,14.66,3.07,0.78,5.05,3.74,18.1,,77.7,,,14.16,29.93,29.93,1013.57,-8.09,577.88,18.2,0.0972,,,,10110,0,0.1732,0,0,0,2.04,10,1589099449,13.44,1589098964,32.93756,-117.41195,2,9,-0.53,0.91,2,4.1,5546,23.5,1589099658,32.95394,-117.44557
